id,village,rus_village,lat,lon,lang,aff,family,standard,default_level,dialect_toplevel,dialect_toplevel_cyr,dialect_nt1,dialect_nt1_cyr,dialect_nt2,dialect_nt2_cyr,dialect_nt3,dialect_nt3_cyr,village_dialect,gltc_lang,lang_col,aff_col,dataset_version
1,Khpyuk,Хпюк,41.66667,47.66667,Agul,Lezgic,East Caucasian,NA,Agul,Huppuq,Хпюкский,NA,NA,NA,NA,NA,NA,Huppuq',aghu1253,#00cc66,#00cc66,2024-09-19
2,Usug,Усуг,41.672481,47.594624,Agul,Lezgic,East Caucasian,NA,Agul,Keren,Керенский,NA,NA,NA,NA,NA,NA,Usug,aghu1253,#00cc66,#00cc66,2024-09-19
3,Kvardal,Квардал,41.6803,47.56277,Agul,Lezgic,East Caucasian,NA,Agul,Keren,Керенский,NA,NA,NA,NA,NA,NA,Kvardal,aghu1253,#00cc66,#00cc66,2024-09-19
4,Ukuz,Укуз,41.696017,47.591355,Agul,Lezgic,East Caucasian,NA,Agul,Keren,Керенский,NA,NA,NA,NA,NA,NA,Ukuz,aghu1253,#00cc66,#00cc66,2024-09-19
5,Khveredzh,Хвередж,41.70206,47.57218,Agul,Lezgic,East Caucasian,NA,Agul,Keren,Керенский,NA,NA,NA,NA,NA,NA,Khveredzh,aghu1253,#00cc66,#00cc66,2024-09-19
6,Bedyuk,Бедюк,41.716044,47.525715,Agul,Lezgic,East Caucasian,NA,Agul,Keren,Керенский,NA,NA,NA,NA,NA,NA,Bedyuk,aghu1253,#00cc66,#00cc66,2024-09-19
7,Goa,Гоа,41.753585,47.703213,Agul,Lezgic,East Caucasian,NA,Agul,Central Agul,Среднеагульский,NA,NA,NA,NA,NA,NA,Goa,aghu1253,#00cc66,#00cc66,2024-09-19
8,Richa,Рича,41.763646,47.502769,Agul,Lezgic,East Caucasian,NA,Agul,Keren,Керенский,NA,NA,NA,NA,NA,NA,Richa,aghu1253,#00cc66,#00cc66,2024-09-19
9,Duldug,Дулдуг,41.76833,47.67438,Agul,Lezgic,East Caucasian,NA,Agul,Central Agul,Среднеагульский,NA,NA,NA,NA,NA,NA,Duldug,aghu1253,#00cc66,#00cc66,2024-09-19
10,Tpig,Тпиг,41.780423,47.589523,Agul,Lezgic,East Caucasian,NA,Agul,Central Agul,Среднеагульский,NA,NA,NA,NA,NA,NA,Tpig,aghu1253,#00cc66,#00cc66,2024-09-19
11,Khutkhul,Хутхул,41.78517,47.61451,Agul,Lezgic,East Caucasian,NA,Agul,Central Agul,Среднеагульский,NA,NA,NA,NA,NA,NA,Khutkhul,aghu1253,#00cc66,#00cc66,2024-09-19
12,Fite,Фите,41.79161,47.73998,Agul,Lezgic,East Caucasian,NA,Agul,Fite,Фитинский,NA,NA,NA,NA,NA,NA,Fite,aghu1253,#00cc66,#00cc66,2024-09-19
13,Yarkug,Яркуг,41.79814,47.68435,Agul,Lezgic,East Caucasian,NA,Agul,Central Agul,Среднеагульский,NA,NA,NA,NA,NA,NA,Yarkug,aghu1253,#00cc66,#00cc66,2024-09-19
14,Burkikhan,Буркихан,41.806356,47.538467,Agul,Lezgic,East Caucasian,NA,Agul,NA,NA,NA,NA,NA,NA,NA,NA,Burkikhan,aghu1253,#00cc66,#00cc66,2024-09-19
15,Misi,Миси,41.80991,47.60329,Agul,Lezgic,East Caucasian,NA,Agul,Central Agul,Среднеагульский,NA,NA,NA,NA,NA,NA,Misi,aghu1253,#00cc66,#00cc66,2024-09-19
16,Kurag,Кураг,41.836764,47.661351,Agul,Lezgic,East Caucasian,NA,Agul,Central Agul,Среднеагульский,Kurag,Курагский,NA,NA,NA,NA,Kurag,aghu1253,#00cc66,#00cc66,2024-09-19
17,Tsirkhe,Цирхе,41.91513,47.59679,Agul,Lezgic,East Caucasian,NA,Agul,NA,NA,NA,NA,NA,NA,NA,NA,Tsirkhe,aghu1253,#00cc66,#00cc66,2024-09-19
18,Standard Agul,NA,41.92418,47.58429,Agul,Lezgic,East Caucasian,Standard Agul,Agul,NA,NA,NA,NA,NA,NA,NA,NA,NA,aghu1253,#00cc66,#00cc66,2024-09-19
19,Gelinbatan,Гелинбатан,41.94722,48.16722,Agul,Lezgic,East Caucasian,NA,Agul,Fite,Фитинский,NA,NA,NA,NA,NA,NA,Gelinbatan,aghu1253,#00cc66,#00cc66,2024-09-19
20,Kvankhidatl',Кванхидатль,42.65789,46.271742,Andi,Andic,East Caucasian,NA,Lower Andi,NA,NA,NA,NA,NA,NA,NA,NA,Kvankhidatli,andi1255,#003366,#9900ff,2024-09-19
21,Muni,Муни,42.680242,46.308874,Andi,Andic,East Caucasian,NA,Lower Andi,NA,NA,NA,NA,NA,NA,NA,NA,Muni,andi1255,#003366,#9900ff,2024-09-19
22,Mekheturi,Мехетури,42.70556,46.2375,Andi,Andic,East Caucasian,NA,Upper Andi,NA,NA,NA,NA,NA,NA,NA,NA,Mekheturi,andi1255,#003366,#9900ff,2024-09-19
23,Shivor,Шивор,42.714662,46.256637,Andi,Andic,East Caucasian,NA,Upper Andi,NA,NA,NA,NA,NA,NA,NA,NA,Shivor,andi1255,#003366,#9900ff,2024-09-19
24,Rushukha,Рушуха,42.715089999999996,46.28112,Andi,Andic,East Caucasian,NA,Upper Andi,NA,NA,NA,NA,NA,NA,NA,NA,Rushukha,andi1255,#003366,#9900ff,2024-09-19
25,Chanko,Чанко,42.717936,46.246417,Andi,Andic,East Caucasian,NA,Upper Andi,NA,NA,NA,NA,NA,NA,NA,NA,Chanko,andi1255,#003366,#9900ff,2024-09-19
26,Khando,Хандо,42.72694,46.23361,Andi,Andic,East Caucasian,NA,Upper Andi,NA,NA,NA,NA,NA,NA,NA,NA,Khando,andi1255,#003366,#9900ff,2024-09-19
27,Zilo,Зило,42.731394,46.319223,Andi,Andic,East Caucasian,NA,Upper Andi,NA,NA,NA,NA,NA,NA,NA,NA,Zilo,andi1255,#003366,#9900ff,2024-09-19
28,Tsibilta,Цибилта,42.74322,46.24311,Andi,Andic,East Caucasian,NA,Upper Andi,NA,NA,NA,NA,NA,NA,NA,NA,Tsibilta,andi1255,#003366,#9900ff,2024-09-19
29,Ashali,Ашали,42.76963,46.30878,Andi,Andic,East Caucasian,NA,Upper Andi,NA,NA,NA,NA,NA,NA,NA,NA,Ashali,andi1255,#003366,#9900ff,2024-09-19
30,Rikvani,Риквани,42.782304,46.319372,Andi,Andic,East Caucasian,NA,Upper Andi,NA,NA,NA,NA,NA,NA,NA,NA,Rikvani,andi1255,#003366,#9900ff,2024-09-19
31,Andi,Анди,42.7856,46.2639,Andi,Andic,East Caucasian,NA,Upper Andi,NA,NA,NA,NA,NA,NA,NA,NA,Andi,andi1255,#003366,#9900ff,2024-09-19
32,Gunkha,Гунха,42.78968,46.28275,Andi,Andic,East Caucasian,NA,Upper Andi,NA,NA,NA,NA,NA,NA,NA,NA,Gunkha,andi1255,#003366,#9900ff,2024-09-19
33,Gagatli,Гагатли,42.800361,46.292645,Andi,Andic,East Caucasian,NA,Upper Andi,NA,NA,NA,NA,NA,NA,NA,NA,Gagatli,andi1255,#003366,#9900ff,2024-09-19
34,Kubatl',Кубатль,42.03659,46.85973,Archi,Lezgic,East Caucasian,NA,Archi,NA,NA,NA,NA,NA,NA,NA,NA,Kubatl',arch1244,#99cc00,#00cc66,2024-09-19
35,Alchunib,Алчуниб,42.05196,46.86943,Archi,Lezgic,East Caucasian,NA,Archi,NA,NA,NA,NA,NA,NA,NA,NA,Alchunib,arch1244,#99cc00,#00cc66,2024-09-19
36,Khilikh,Хилих,42.05838,46.88751,Archi,Lezgic,East Caucasian,NA,Archi,NA,NA,NA,NA,NA,NA,NA,NA,Khilikh,arch1244,#99cc00,#00cc66,2024-09-19
37,Keserib,Кесериб,42.0647,46.888,Archi,Lezgic,East Caucasian,NA,Archi,NA,NA,NA,NA,NA,NA,NA,NA,Keserib,arch1244,#99cc00,#00cc66,2024-09-19
38,Archib,Арчиб,42.0664,46.8678,Archi,Lezgic,East Caucasian,NA,Archi,NA,NA,NA,NA,NA,NA,NA,NA,Archib,arch1244,#99cc00,#00cc66,2024-09-19
39,Kalib,Калиб,42.07054,46.86002,Archi,Lezgic,East Caucasian,NA,Archi,NA,NA,NA,NA,NA,NA,NA,NA,Kalib,arch1244,#99cc00,#00cc66,2024-09-19
40,Khitab,Хитаб,42.07538,46.867234,Archi,Lezgic,East Caucasian,NA,Archi,NA,NA,NA,NA,NA,NA,NA,NA,Khitab,arch1244,#99cc00,#00cc66,2024-09-19
41,Kusur,Кусур,41.781293,46.949207,Avar,Avar-Andic,East Caucasian,NA,Avar,Hochota,Кусурское,NA,NA,NA,NA,NA,NA,NA,avar1256,#009999,#009999,2024-09-19
42,Kamilukh,Камилух,41.90911,46.63101,Avar,Avar-Andic,East Caucasian,NA,Avar,Antlratl,Анкратльское,Southern Antlratl,южноанкратльский,Tomur,томурский,NA,NA,NA,avar1256,#009999,#009999,2024-09-19
43,Genekolob,Генеколоб,41.916992,46.600199,Avar,Avar-Andic,East Caucasian,NA,Avar,Antlratl,Анкратльское,Southern Antlratl,южноанкратльский,Tomur,томурский,NA,NA,NA,avar1256,#009999,#009999,2024-09-19
44,Gerel,Герель,41.94451,46.551888,Avar,Avar-Andic,East Caucasian,NA,Avar,Antlratl,Анкратльское,Southern Antlratl,южноанкратльский,Tomur,томурский,NA,NA,NA,avar1256,#009999,#009999,2024-09-19
45,Betelda,Бетельда,41.95077,46.54164,Avar,Avar-Andic,East Caucasian,NA,Avar,Antlratl,Анкратльское,Southern Antlratl,южноанкратльский,Tomur,томурский,NA,NA,NA,avar1256,#009999,#009999,2024-09-19
46,Gortnob,Гортноб,41.962665,46.525604,Avar,Avar-Andic,East Caucasian,NA,Avar,Antlratl,Анкратльское,Southern Antlratl,южноанкратльский,Tomur,томурский,NA,NA,NA,avar1256,#009999,#009999,2024-09-19
47,Ulgeb,Ульгеб,41.964253,46.523688,Avar,Avar-Andic,East Caucasian,NA,Avar,Antlratl,Анкратльское,Southern Antlratl,южноанкратльский,Tomur,томурский,NA,NA,NA,avar1256,#009999,#009999,2024-09-19
48,Salda,Салда,41.97497,46.50848,Avar,Avar-Andic,East Caucasian,NA,Avar,Antlratl,Анкратльское,Southern Antlratl,южноанкратльский,Tomur,томурский,NA,NA,NA,avar1256,#009999,#009999,2024-09-19
49,Choroda,Чорода,41.98096,46.49696,Avar,Avar-Andic,East Caucasian,NA,Avar,Antlratl,Анкратльское,Southern Antlratl,южноанкратльский,Tomur,томурский,NA,NA,NA,avar1256,#009999,#009999,2024-09-19
50,Gagar,Гагар,41.999252,46.592744,Avar,Avar-Andic,East Caucasian,NA,Avar,Antlratl,Анкратльское,Southern Antlratl,южноанкратльский,Buhun,бухнадинский,NA,NA,NA,avar1256,#009999,#009999,2024-09-19
51,Tsimguda,Цимгуда,42.01269,46.5665,Avar,Avar-Andic,East Caucasian,NA,Avar,Antlratl,Анкратльское,Southern Antlratl,южноанкратльский,Buhun,бухнадинский,NA,NA,NA,avar1256,#009999,#009999,2024-09-19
52,Tokhota,Тохота,42.0178,46.4639,Avar,Avar-Andic,East Caucasian,NA,Avar,Antlratl,Анкратльское,Southern Antlratl,южноанкратльский,Buhun,бухнадинский,NA,NA,NA,avar1256,#009999,#009999,2024-09-19
53,Tlyanada,Тлянада,42.02864,46.51038,Avar,Avar-Andic,East Caucasian,NA,Avar,Antlratl,Анкратльское,Southern Antlratl,южноанкратльский,Buhun,бухнадинский,NA,NA,NA,avar1256,#009999,#009999,2024-09-19
54,Saniorta,Саниорта,42.03195,46.44246,Avar,Avar-Andic,East Caucasian,NA,Avar,Antlratl,Анкратльское,Southern Antlratl,южноанкратльский,Buhun,бухнадинский,NA,NA,NA,avar1256,#009999,#009999,2024-09-19
55,Nitilsukh,Нитилсух,42.04732,46.42938,Avar,Avar-Andic,East Caucasian,NA,Avar,Antlratl,Анкратльское,Southern Antlratl,южноанкратльский,Buhun,бухнадинский,NA,NA,NA,avar1256,#009999,#009999,2024-09-19
56,Talsukh,Талсух,42.04741,46.40589,Avar,Avar-Andic,East Caucasian,NA,Avar,Antlratl,Анкратльское,Southern Antlratl,южноанкратльский,Buhun,бухнадинский,NA,NA,NA,avar1256,#009999,#009999,2024-09-19
57,Garakolob,Гараколоб,42.048887,46.455015,Avar,Avar-Andic,East Caucasian,NA,Avar,Antlratl,Анкратльское,Southern Antlratl,южноанкратльский,Buhun,бухнадинский,NA,NA,NA,avar1256,#009999,#009999,2024-09-19
58,Ritlyab,Ритляб,42.05087,46.71917,Avar,Avar-Andic,East Caucasian,NA,Avar,Qaraq-Buxti-Unti,Карахско-бухтинско-унтибское,Qaraq,карахский,Tlesserukh,тлессерухский,NA,NA,NA,avar1256,#009999,#009999,2024-09-19
59,Rosnob,Росноб,42.055,46.41194,Avar,Avar-Andic,East Caucasian,NA,Avar,Antlratl,Анкратльское,Southern Antlratl,южноанкратльский,Buhun,бухнадинский,NA,NA,NA,avar1256,#009999,#009999,2024-09-19
60,Tsumilukh,Цумилух,42.05974,46.41242,Avar,Avar-Andic,East Caucasian,NA,Avar,Antlratl,Анкратльское,Southern Antlratl,южноанкратльский,Buhun,бухнадинский,NA,NA,NA,avar1256,#009999,#009999,2024-09-19
61,Kolob,Колоб,42.0709604,46.4817811,Avar,Avar-Andic,East Caucasian,NA,Avar,Antlratl,Анкратльское,Southern Antlratl,южноанкратльский,Buhun,бухнадинский,NA,NA,NA,NA,NA,NA,2024-09-19
62,Nikar,Никар,42.0737,46.406903,Avar,Avar-Andic,East Caucasian,NA,Avar,Antlratl,Анкратльское,Southern Antlratl,южноанкратльский,Buhun,бухнадинский,NA,NA,NA,avar1256,#009999,#009999,2024-09-19
63,Barnab,Барнаб,42.07964,46.37894,Avar,Avar-Andic,East Caucasian,NA,Avar,Antlratl,Анкратльское,Northern Antlratl,северноанкратльский,Antsros-Unh,анцрос-унхадинский,NA,NA,NA,avar1256,#009999,#009999,2024-09-19
64,Sikar,Сикар,42.07966,46.41127,Avar,Avar-Andic,East Caucasian,NA,Avar,Antlratl,Анкратльское,Southern Antlratl,южноанкратльский,Buhun,бухнадинский,NA,NA,NA,avar1256,#009999,#009999,2024-09-19
65,Khamar,Хамар,42.095868,46.383695,Avar,Avar-Andic,East Caucasian,NA,Avar,Antlratl,Анкратльское,Northern Antlratl,северноанкратльский,Antsros-Unh,анцрос-унхадинский,NA,NA,NA,avar1256,#009999,#009999,2024-09-19
66,Kutlab,Кутлаб,42.09663,46.32982,Avar,Avar-Andic,East Caucasian,NA,Avar,Antlratl,Анкратльское,Northern Antlratl,северноанкратльский,Antsros-Unh,анцрос-унхадинский,NA,NA,NA,avar1256,#009999,#009999,2024-09-19
67,Goab,Гоаб,42.097185,46.738407,Avar,Avar-Andic,East Caucasian,NA,Avar,Qaraq-Buxti-Unti,Карахско-бухтинско-унтибское,Qaraq,карахский,Tlesserukh,тлессерухский,NA,NA,NA,avar1256,#009999,#009999,2024-09-19
68,Nadar,Надар,42.09736,46.36025,Avar,Avar-Andic,East Caucasian,NA,Avar,Antlratl,Анкратльское,Northern Antlratl,северноанкратльский,Antsros-Unh,анцрос-унхадинский,NA,NA,NA,avar1256,#009999,#009999,2024-09-19
69,Khadiyal,Хадиял,42.0989,46.4653,Avar,Avar-Andic,East Caucasian,NA,Avar,Antlratl,Анкратльское,Southern Antlratl,южноанкратльский,Buhun,бухнадинский,NA,NA,NA,avar1256,#009999,#009999,2024-09-19
70,Chitab,Читаб,42.10412,46.86914,Avar,Avar-Andic,East Caucasian,NA,Avar,Qaraq-Buxti-Unti,Карахско-бухтинско-унтибское,Qaraq,карахский,Riss,риссибский,NA,NA,NA,avar1256,#009999,#009999,2024-09-19
71,Tlyarata,Тлярата,42.106187,46.354908,Avar,Avar-Andic,East Caucasian,NA,Avar,Antlratl,Анкратльское,Northern Antlratl,северноанкратльский,Antsros-Unh,анцрос-унхадинский,NA,NA,NA,NA,NA,NA,2024-09-19
72,Tilutl,Тилутль,42.109079,46.350054,Avar,Avar-Andic,East Caucasian,NA,Avar,Antlratl,Анкратльское,Northern Antlratl,северноанкратльский,Antsros-Unh,анцрос-унхадинский,NA,NA,NA,avar1256,#009999,#009999,2024-09-19
73,Kardib,Кардиб,42.111443,46.514655,Avar,Avar-Andic,East Caucasian,NA,Avar,Antlratl,Анкратльское,Southern Antlratl,южноанкратльский,Buhun,бухнадинский,NA,NA,NA,avar1256,#009999,#009999,2024-09-19
74,Tokh-Orda,Тох-Орда,42.11174,46.35982,Avar,Avar-Andic,East Caucasian,NA,Avar,Antlratl,Анкратльское,Northern Antlratl,северноанкратльский,Antsros-Unh,анцрос-унхадинский,NA,NA,NA,avar1256,#009999,#009999,2024-09-19
75,Gindib,Гиндиб,42.11296,46.50397,Avar,Avar-Andic,East Caucasian,NA,Avar,Antlratl,Анкратльское,Southern Antlratl,южноанкратльский,Buhun,бухнадинский,NA,NA,NA,avar1256,#009999,#009999,2024-09-19
76,Gilib,Гилиб,42.1169,46.7761,Avar,Avar-Andic,East Caucasian,NA,Avar,Qaraq-Buxti-Unti,Карахско-бухтинско-унтибское,Qaraq,карахский,Tlesserukh,тлессерухский,NA,NA,NA,avar1256,#009999,#009999,2024-09-19
77,Ukal,Укал,42.12163,46.34771,Avar,Avar-Andic,East Caucasian,NA,Avar,Antlratl,Анкратльское,Northern Antlratl,северноанкратльский,Antsros-Unh,анцрос-унхадинский,NA,NA,NA,avar1256,#009999,#009999,2024-09-19
78,Karanub,Карануб,42.12262,46.81777,Avar,Avar-Andic,East Caucasian,NA,Avar,Qaraq-Buxti-Unti,Карахско-бухтинско-унтибское,Qaraq,карахский,Tlesserukh,тлессерухский,NA,NA,NA,avar1256,#009999,#009999,2024-09-19
79,Doronub,Доронуб,42.124689,46.809427,Avar,Avar-Andic,East Caucasian,NA,Avar,Qaraq-Buxti-Unti,Карахско-бухтинско-унтибское,Qaraq,карахский,Tlesserukh,тлессерухский,NA,NA,NA,avar1256,#009999,#009999,2024-09-19
80,Chanab,Чанаб,42.125345,46.90434,Avar,Avar-Andic,East Caucasian,NA,Avar,Qaraq-Buxti-Unti,Карахско-бухтинско-унтибское,Qaraq,карахский,Riss,риссибский,NA,NA,NA,avar1256,#009999,#009999,2024-09-19
81,Kutikh,Кутих,42.12587,46.78902,Avar,Avar-Andic,East Caucasian,NA,Avar,Qaraq-Buxti-Unti,Карахско-бухтинско-унтибское,Qaraq,карахский,Tlesserukh,тлессерухский,NA,NA,NA,avar1256,#009999,#009999,2024-09-19
82,Dusrakh,Дусрах,42.1275,46.8792,Avar,Avar-Andic,East Caucasian,NA,Avar,Qaraq-Buxti-Unti,Карахско-бухтинско-унтибское,Qaraq,карахский,Riss,риссибский,NA,NA,NA,avar1256,#009999,#009999,2024-09-19
83,Chvadab,Чвадаб,42.13028,46.87639,Avar,Avar-Andic,East Caucasian,NA,Avar,Qaraq-Buxti-Unti,Карахско-бухтинско-унтибское,Qaraq,карахский,Riss,риссибский,NA,NA,NA,avar1256,#009999,#009999,2024-09-19
84,Kosroda,Косрода,42.13141,46.85829,Avar,Avar-Andic,East Caucasian,NA,Avar,Qaraq-Buxti-Unti,Карахско-бухтинско-унтибское,Qaraq,карахский,Riss,риссибский,NA,NA,NA,avar1256,#009999,#009999,2024-09-19
85,Gendukh,Гендух,42.13476,46.403084,Avar,Avar-Andic,East Caucasian,NA,Avar,Antlratl,Анкратльское,Northern Antlratl,северноанкратльский,Antsros-Unh,анцрос-унхадинский,NA,NA,NA,avar1256,#009999,#009999,2024-09-19
86,Gvedysh,Гведыш,42.13591,46.41437,Avar,Avar-Andic,East Caucasian,NA,Avar,Antlratl,Анкратльское,Northern Antlratl,северноанкратльский,Antsros-Unh,анцрос-унхадинский,NA,NA,NA,avar1256,#009999,#009999,2024-09-19
87,Tlyarobazutl,Тляробазутль,42.14039,46.77575,Avar,Avar-Andic,East Caucasian,NA,Avar,Qaraq-Buxti-Unti,Карахско-бухтинско-унтибское,Qaraq,карахский,Tlesserukh,тлессерухский,NA,NA,NA,avar1256,#009999,#009999,2024-09-19
88,Nukush,Нукуш,42.1492,46.80579,Avar,Avar-Andic,East Caucasian,NA,Avar,Qaraq-Buxti-Unti,Карахско-бухтинско-унтибское,Qaraq,карахский,Tlesserukh,тлессерухский,NA,NA,NA,avar1256,#009999,#009999,2024-09-19
89,Tsemer,Цемер,42.15195,46.75296,Avar,Avar-Andic,East Caucasian,NA,Avar,Qaraq-Buxti-Unti,Карахско-бухтинско-унтибское,Qaraq,карахский,Tlesserukh,тлессерухский,NA,NA,NA,avar1256,#009999,#009999,2024-09-19
90,Mogrob,Могроб,42.15672,46.86521,Avar,Avar-Andic,East Caucasian,NA,Avar,Qaraq-Buxti-Unti,Карахско-бухтинско-унтибское,Qaraq,карахский,Riss,риссибский,NA,NA,NA,avar1256,#009999,#009999,2024-09-19
91,Irib,Ириб,42.1606,46.8169,Avar,Avar-Andic,East Caucasian,NA,Avar,Qaraq-Buxti-Unti,Карахско-бухтинско-унтибское,Qaraq,карахский,Tlesserukh,тлессерухский,NA,NA,NA,avar1256,#009999,#009999,2024-09-19
92,Childa,Чилда,42.16328,46.34734,Avar,Avar-Andic,East Caucasian,NA,Avar,Antlratl,Анкратльское,Northern Antlratl,северноанкратльский,Tash,ташский,NA,NA,NA,avar1256,#009999,#009999,2024-09-19
93,Anada,Анада,42.17306,46.36917,Avar,Avar-Andic,East Caucasian,NA,Avar,Antlratl,Анкратльское,Northern Antlratl,северноанкратльский,Tash,ташский,NA,NA,NA,avar1256,#009999,#009999,2024-09-19
94,Baginub,Багинуб,42.1743,46.88159,Avar,Avar-Andic,East Caucasian,NA,Avar,Qaraq-Buxti-Unti,Карахско-бухтинско-унтибское,Qaraq,карахский,Riss,риссибский,NA,NA,NA,avar1256,#009999,#009999,2024-09-19
95,Khinub,Хинуб,42.17454,46.82406,Avar,Avar-Andic,East Caucasian,NA,Avar,Qaraq-Buxti-Unti,Карахско-бухтинско-унтибское,Qaraq,карахский,Tlesserukh,тлессерухский,NA,NA,NA,avar1256,#009999,#009999,2024-09-19
96,Kuchrab,Кучраб,42.17506,46.90244,Avar,Avar-Andic,East Caucasian,NA,Avar,Qaraq-Buxti-Unti,Карахско-бухтинско-унтибское,Qaraq,карахский,Riss,риссибский,NA,NA,NA,avar1256,#009999,#009999,2024-09-19
97,Khidib,Хидиб,42.17812,46.36299,Avar,Avar-Andic,East Caucasian,NA,Avar,Antlratl,Анкратльское,Northern Antlratl,северноанкратльский,Tash,ташский,NA,NA,NA,avar1256,#009999,#009999,2024-09-19
98,Tlobzoda,Тлобзода,42.17944,46.37111,Avar,Avar-Andic,East Caucasian,NA,Avar,Antlratl,Анкратльское,Northern Antlratl,северноанкратльский,Tash,ташский,NA,NA,NA,avar1256,#009999,#009999,2024-09-19
99,Khurukh,Хурух,42.18441,46.85807,Avar,Avar-Andic,East Caucasian,NA,Avar,Qaraq-Buxti-Unti,Карахско-бухтинско-унтибское,Qaraq,карахский,Mukratl,мукратльский,NA,NA,NA,avar1256,#009999,#009999,2024-09-19
100,Ruldab,Рульдаб,42.18472,46.85028,Avar,Avar-Andic,East Caucasian,NA,Avar,Qaraq-Buxti-Unti,Карахско-бухтинско-унтибское,Qaraq,карахский,Tlesserukh,тлессерухский,NA,NA,NA,avar1256,#009999,#009999,2024-09-19
101,Katroso,Катросо,42.188329,46.33021,Avar,Avar-Andic,East Caucasian,NA,Avar,Antlratl,Анкратльское,Northern Antlratl,северноанкратльский,Antsuq,анцухский,NA,NA,NA,avar1256,#009999,#009999,2024-09-19
102,Antsukh,Анцух,42.1892,46.3397,Avar,Avar-Andic,East Caucasian,NA,Avar,Antlratl,Анкратльское,Northern Antlratl,северноанкратльский,Antsuq,анцухский,NA,NA,NA,avar1256,#009999,#009999,2024-09-19
103,Gebguda,Гебгуда,42.190026,46.354817,Avar,Avar-Andic,East Caucasian,NA,Avar,Antlratl,Анкратльское,Northern Antlratl,северноанкратльский,Tash,ташский,NA,NA,NA,avar1256,#009999,#009999,2024-09-19
104,Chadakolob,Чадаколоб,42.19182,46.31981,Avar,Avar-Andic,East Caucasian,NA,Avar,Antlratl,Анкратльское,Northern Antlratl,северноанкратльский,Antsuq,анцухский,NA,NA,NA,avar1256,#009999,#009999,2024-09-19
105,Khorta,Хорта,42.19329,46.35976,Avar,Avar-Andic,East Caucasian,NA,Avar,Antlratl,Анкратльское,Northern Antlratl,северноанкратльский,Tash,ташский,NA,NA,NA,avar1256,#009999,#009999,2024-09-19
106,Chododa,Чодода,42.193439,46.314784,Avar,Avar-Andic,East Caucasian,NA,Avar,Antlratl,Анкратльское,Northern Antlratl,северноанкратльский,Antsuq,анцухский,NA,NA,NA,avar1256,#009999,#009999,2024-09-19
107,Noyrukh,Нойрух,42.193895,46.38005,Avar,Avar-Andic,East Caucasian,NA,Avar,Antlratl,Анкратльское,Northern Antlratl,северноанкратльский,Tash,ташский,NA,NA,NA,avar1256,#009999,#009999,2024-09-19
108,Magar,Магар,42.19546,46.843669,Avar,Avar-Andic,East Caucasian,NA,Avar,Qaraq-Buxti-Unti,Карахско-бухтинско-унтибское,Qaraq,карахский,Mukratl,мукратльский,NA,NA,NA,avar1256,#009999,#009999,2024-09-19
109,Mukutl,Мукутль,42.19562,46.861381,Avar,Avar-Andic,East Caucasian,NA,Avar,Qaraq-Buxti-Unti,Карахско-бухтинско-унтибское,Qaraq,карахский,Mukratl,мукратльский,NA,NA,NA,avar1256,#009999,#009999,2024-09-19
110,Zhazhada,Жажада,42.197157,46.424903,Avar,Avar-Andic,East Caucasian,NA,Avar,Antlratl,Анкратльское,Northern Antlratl,северноанкратльский,Tash,ташский,NA,NA,NA,avar1256,#009999,#009999,2024-09-19
111,Mazada,Мазада,42.197896,46.390092,Avar,Avar-Andic,East Caucasian,NA,Avar,Antlratl,Анкратльское,Northern Antlratl,северноанкратльский,Tash,ташский,NA,NA,NA,avar1256,#009999,#009999,2024-09-19
112,Nachada,Начада,42.198508,46.448902,Avar,Avar-Andic,East Caucasian,NA,Avar,Antlratl,Анкратльское,Northern Antlratl,северноанкратльский,Tash,ташский,NA,NA,NA,avar1256,#009999,#009999,2024-09-19
113,Tinchuda,Тинчуда,42.19861,46.45306,Avar,Avar-Andic,East Caucasian,NA,Avar,Antlratl,Анкратльское,Northern Antlratl,северноанкратльский,Tash,ташский,NA,NA,NA,avar1256,#009999,#009999,2024-09-19
114,Niklida,Никлида,42.199941,46.406485000000004,Avar,Avar-Andic,East Caucasian,NA,Avar,Antlratl,Анкратльское,Northern Antlratl,северноанкратльский,Tash,ташский,NA,NA,NA,avar1256,#009999,#009999,2024-09-19
115,Bezhuda,Бежуда,42.200348,46.479175,Avar,Avar-Andic,East Caucasian,NA,Avar,Antlratl,Анкратльское,Northern Antlratl,северноанкратльский,Tash,ташский,NA,NA,NA,avar1256,#009999,#009999,2024-09-19
116,Rosta,Роста,42.20056,46.39667,Avar,Avar-Andic,East Caucasian,NA,Avar,Antlratl,Анкратльское,Northern Antlratl,северноанкратльский,Tash,ташский,NA,NA,NA,avar1256,#009999,#009999,2024-09-19
117,Khotlob,Хотлоб,42.201243,46.432755,Avar,Avar-Andic,East Caucasian,NA,Avar,Antlratl,Анкратльское,Northern Antlratl,северноанкратльский,Tash,ташский,NA,NA,NA,avar1256,#009999,#009999,2024-09-19
118,Sinida,Синида,42.20341,46.39071,Avar,Avar-Andic,East Caucasian,NA,Avar,Antlratl,Анкратльское,Northern Antlratl,северноанкратльский,Tash,ташский,NA,NA,NA,avar1256,#009999,#009999,2024-09-19
119,Saraf,Сараф,42.20373,46.31767,Avar,Avar-Andic,East Caucasian,NA,Avar,Antlratl,Анкратльское,Northern Antlratl,северноанкратльский,Antsuq,анцухский,NA,NA,NA,avar1256,#009999,#009999,2024-09-19
120,Khobokh,Хобох,42.204624,46.379234,Avar,Avar-Andic,East Caucasian,NA,Avar,Antlratl,Анкратльское,Northern Antlratl,северноанкратльский,Tash,ташский,NA,NA,NA,avar1256,#009999,#009999,2024-09-19
121,Chunib,Чуниб,42.20496,46.82498,Avar,Avar-Andic,East Caucasian,NA,Avar,Qaraq-Buxti-Unti,Карахско-бухтинско-унтибское,Qaraq,карахский,Mukratl,мукратльский,NA,NA,NA,avar1256,#009999,#009999,2024-09-19
122,Kabasida,Кабасида,42.205771,46.341334,Avar,Avar-Andic,East Caucasian,NA,Avar,Antlratl,Анкратльское,Northern Antlratl,северноанкратльский,Antsuq,анцухский,NA,NA,NA,avar1256,#009999,#009999,2024-09-19
123,Machar,Мачар,42.206556,46.335204,Avar,Avar-Andic,East Caucasian,NA,Avar,Antlratl,Анкратльское,Northern Antlratl,северноанкратльский,Antsuq,анцухский,NA,NA,NA,avar1256,#009999,#009999,2024-09-19
124,Tseneb,Ценеб,42.206684,46.842652,Avar,Avar-Andic,East Caucasian,NA,Avar,Qaraq-Buxti-Unti,Карахско-бухтинско-унтибское,Qaraq,карахский,Mukratl,мукратльский,NA,NA,NA,avar1256,#009999,#009999,2024-09-19
125,Tamuda,Тамуда,42.21001,46.382,Avar,Avar-Andic,East Caucasian,NA,Avar,Antlratl,Анкратльское,Northern Antlratl,северноанкратльский,Tash,ташский,NA,NA,NA,avar1256,#009999,#009999,2024-09-19
126,Karadla,Карадла,42.21059,46.29844,Avar,Avar-Andic,East Caucasian,NA,Avar,Antlratl,Анкратльское,Northern Antlratl,северноанкратльский,Antsuq,анцухский,NA,NA,NA,NA,NA,NA,2024-09-19
127,Moshchob,Мощоб,42.21389,46.79167,Avar,Avar-Andic,East Caucasian,NA,Avar,Qaraq-Buxti-Unti,Карахско-бухтинско-унтибское,Qaraq,карахский,Mukratl,мукратльский,NA,NA,NA,avar1256,#009999,#009999,2024-09-19
128,Shidib,Шидиб,42.214868,46.302644,Avar,Avar-Andic,East Caucasian,NA,Avar,Antlratl,Анкратльское,Northern Antlratl,северноанкратльский,Antsuq,анцухский,NA,NA,NA,NA,NA,NA,2024-09-19
129,Sodab,Содаб,42.215081,46.81015,Avar,Avar-Andic,East Caucasian,NA,Avar,Qaraq-Buxti-Unti,Карахско-бухтинско-унтибское,Qaraq,карахский,Mukratl,мукратльский,NA,NA,NA,avar1256,#009999,#009999,2024-09-19
130,Landa,Ланда,42.218,46.27432,Avar,Avar-Andic,East Caucasian,NA,Avar,Antlratl,Анкратльское,Northern Antlratl,северноанкратльский,Antsuq,анцухский,NA,NA,NA,avar1256,#009999,#009999,2024-09-19
131,Bochokh,Бочох,42.22,46.28472,Avar,Avar-Andic,East Caucasian,NA,Avar,Antlratl,Анкратльское,Northern Antlratl,северноанкратльский,Antsuq,анцухский,NA,NA,NA,avar1256,#009999,#009999,2024-09-19
132,Khintida,Хинтида,42.220547,46.275395,Avar,Avar-Andic,East Caucasian,NA,Avar,Antlratl,Анкратльское,Northern Antlratl,северноанкратльский,Antsuq,анцухский,NA,NA,NA,avar1256,#009999,#009999,2024-09-19
133,Tokh,Тох,42.222292,46.291546,Avar,Avar-Andic,East Caucasian,NA,Avar,Antlratl,Анкратльское,Northern Antlratl,северноанкратльский,Antsuq,анцухский,NA,NA,NA,avar1256,#009999,#009999,2024-09-19
134,Kharada,Харада,42.222648,46.258528,Avar,Avar-Andic,East Caucasian,NA,Avar,Antlratl,Анкратльское,Northern Antlratl,северноанкратльский,Antsuq,анцухский,NA,NA,NA,avar1256,#009999,#009999,2024-09-19
135,Gidib,Гидиб,42.22942,46.80621,Avar,Avar-Andic,East Caucasian,NA,Avar,Qaraq-Buxti-Unti,Карахско-бухтинско-унтибское,Qaraq,карахский,Mukratl,мукратльский,NA,NA,NA,avar1256,#009999,#009999,2024-09-19
136,Shidib,Шидиб,42.23138,46.37844,Avar,Avar-Andic,East Caucasian,NA,Avar,Antlratl,Анкратльское,Northern Antlratl,северноанкратльский,Tash,ташский,NA,NA,NA,NA,NA,NA,2024-09-19
137,Khadakolob,Хадаколоб,42.231683,46.261819,Avar,Avar-Andic,East Caucasian,NA,Avar,Antlratl,Анкратльское,Northern Antlratl,северноанкратльский,Antsuq,анцухский,NA,NA,NA,avar1256,#009999,#009999,2024-09-19
138,Nukhotkolob,Нухотколоб,42.23195,46.265721,Avar,Avar-Andic,East Caucasian,NA,Avar,Antlratl,Анкратльское,Northern Antlratl,северноанкратльский,Antsuq,анцухский,NA,NA,NA,avar1256,#009999,#009999,2024-09-19
139,Tsurib,Цуриб,42.235,46.8333,Avar,Avar-Andic,East Caucasian,NA,Avar,Qaraq-Buxti-Unti,Карахско-бухтинско-унтибское,Qaraq,карахский,Mukratl,мукратльский,NA,NA,NA,avar1256,#009999,#009999,2024-09-19
140,Gochob,Гочоб,42.2375,46.6642,Avar,Avar-Andic,East Caucasian,NA,Avar,Qaraq-Buxti-Unti,Карахско-бухтинско-унтибское,Qaraq,карахский,Upper Qaraq,в.-карах,NA,NA,NA,avar1256,#009999,#009999,2024-09-19
141,Bukhty,Бухты,42.240712,46.985633,Avar,Avar-Andic,East Caucasian,NA,Avar,Qaraq-Buxti-Unti,Карахско-бухтинско-унтибское,Bukhti,бухтинский,NA,NA,NA,NA,NA,avar1256,#009999,#009999,2024-09-19
142,Santa,Санта,42.242163,46.254323,Avar,Avar-Andic,East Caucasian,NA,Avar,Antlratl,Анкратльское,Northern Antlratl,северноанкратльский,Antsuq,анцухский,NA,NA,NA,NA,NA,NA,2024-09-19
143,Urukh-Sota,Урух-Сота,42.24222,46.67694,Avar,Avar-Andic,East Caucasian,NA,Avar,Hid-Qeleb,Гидское,Hid,гидский сбс,Urux-sota,урухсотинский,NA,NA,NA,avar1256,#009999,#009999,2024-09-19
144,Kosob,Кособ,42.242893,46.368239,Avar,Avar-Andic,East Caucasian,NA,Avar,Antlratl,Анкратльское,Northern Antlratl,северноанкратльский,Tash,ташский,NA,NA,NA,avar1256,#009999,#009999,2024-09-19
145,Busutli,Бусутли,42.24512,46.363326,Avar,Avar-Andic,East Caucasian,NA,Avar,Antlratl,Анкратльское,Northern Antlratl,северноанкратльский,Tash,ташский,NA,NA,NA,avar1256,#009999,#009999,2024-09-19
146,Shitli,Шитли,42.24574,47.01268,Avar,Avar-Andic,East Caucasian,NA,Avar,Andalal,Андалальское,Soghratl,согратльский,NA,NA,NA,NA,NA,avar1256,#009999,#009999,2024-09-19
147,Shangoda,Шангода,42.246859,47.000153,Avar,Avar-Andic,East Caucasian,NA,Avar,Qaraq-Buxti-Unti,Карахско-бухтинско-унтибское,Bukhti,бухтинский,NA,NA,NA,NA,NA,avar1256,#009999,#009999,2024-09-19
148,Magitl,Магитль,42.248081,46.366738,Avar,Avar-Andic,East Caucasian,NA,Avar,Antlratl,Анкратльское,Northern Antlratl,северноанкратльский,Tash,ташский,NA,NA,NA,avar1256,#009999,#009999,2024-09-19
149,Khoroda,Хорода,42.25629,46.42114,Avar,Avar-Andic,East Caucasian,NA,Avar,Antlratl,Анкратльское,Northern Antlratl,северноанкратльский,Tash,ташский,NA,NA,NA,NA,NA,NA,2024-09-19
150,Talukh,Талух,42.25652,46.74433,Avar,Avar-Andic,East Caucasian,NA,Avar,Qaraq-Buxti-Unti,Карахско-бухтинско-унтибское,Qaraq,карахский,Lower Qaraq,н.-карах,NA,NA,NA,avar1256,#009999,#009999,2024-09-19
151,Ikha,Иха,42.25694,45.81967,Avar,Avar-Andic,East Caucasian,NA,Avar,Baqluq-Northern Avar,Батлухско-северное,Northern Avar,северноаварский,Salataw,салатавский,NA,NA,NA,dido1241,#990033,#ff5050,2024-09-19
152,Ikha,Иха,42.256944,45.820075,Avar,Avar-Andic,East Caucasian,NA,Avar,Baqluq-Northern Avar,Батлухско-северное,Northern Avar,северноаварский,Salataw,салатавский,NA,NA,NA,avar1256,#009999,#009999,2024-09-19
153,Sachada,Сачада,42.258411,46.699595,Avar,Avar-Andic,East Caucasian,NA,Avar,Qaraq-Buxti-Unti,Карахско-бухтинско-унтибское,Qaraq,карахский,Upper Qaraq,в.-карах,NA,NA,NA,avar1256,#009999,#009999,2024-09-19
154,Mugurukh,Мугурух,42.26064,46.86533,Avar,Avar-Andic,East Caucasian,NA,Avar,Qaraq-Buxti-Unti,Карахско-бухтинско-унтибское,Qaraq,карахский,Mukratl,мукратльский,NA,NA,NA,avar1256,#009999,#009999,2024-09-19
155,Sumeta,Сумета,42.262025,46.705541,Avar,Avar-Andic,East Caucasian,NA,Avar,Qaraq-Buxti-Unti,Карахско-бухтинско-унтибское,Qaraq,карахский,Upper Qaraq,в.-карах,NA,NA,NA,avar1256,#009999,#009999,2024-09-19
156,Nakazukh,Наказух,42.264594,46.914238,Avar,Avar-Andic,East Caucasian,NA,Avar,Andalal,Андалальское,Soghratl,согратльский,NA,NA,NA,NA,NA,avar1256,#009999,#009999,2024-09-19
157,Utlukh,Утлух,42.267533,46.730055,Avar,Avar-Andic,East Caucasian,NA,Avar,Qaraq-Buxti-Unti,Карахско-бухтинско-унтибское,Qaraq,карахский,Upper Qaraq,в.-карах,NA,NA,NA,avar1256,#009999,#009999,2024-09-19
158,Gochada,Гочада,42.272626,46.765272,Avar,Avar-Andic,East Caucasian,NA,Avar,Qaraq-Buxti-Unti,Карахско-бухтинско-унтибское,Qaraq,карахский,Lower Qaraq,н.-карах,NA,NA,NA,avar1256,#009999,#009999,2024-09-19
159,Tsulda,Цулда,42.27357,46.72095,Avar,Avar-Andic,East Caucasian,NA,Avar,Qaraq-Buxti-Unti,Карахско-бухтинско-унтибское,Qaraq,карахский,Upper Qaraq,в.-карах,NA,NA,NA,avar1256,#009999,#009999,2024-09-19
160,Tlyarosh,Тлярош,42.275317,46.751805,Avar,Avar-Andic,East Caucasian,NA,Avar,Qaraq-Buxti-Unti,Карахско-бухтинско-унтибское,Qaraq,карахский,Lower Qaraq,н.-карах,NA,NA,NA,avar1256,#009999,#009999,2024-09-19
161,Charoda,Чарода,42.2764,46.8019,Avar,Avar-Andic,East Caucasian,NA,Avar,Qaraq-Buxti-Unti,Карахско-бухтинско-унтибское,Qaraq,карахский,Lower Qaraq,н.-карах,NA,NA,NA,avar1256,#009999,#009999,2024-09-19
162,Murukh,Мурух,42.27719,46.7715,Avar,Avar-Andic,East Caucasian,NA,Avar,Qaraq-Buxti-Unti,Карахско-бухтинско-унтибское,Qaraq,карахский,Lower Qaraq,н.-карах,NA,NA,NA,avar1256,#009999,#009999,2024-09-19
163,Gunukh,Гунух,42.28043,46.76307,Avar,Avar-Andic,East Caucasian,NA,Avar,Qaraq-Buxti-Unti,Карахско-бухтинско-унтибское,Qaraq,карахский,Lower Qaraq,н.-карах,NA,NA,NA,avar1256,#009999,#009999,2024-09-19
164,Gontlob,Гонтлоб,42.280673,46.726468,Avar,Avar-Andic,East Caucasian,NA,Avar,Qaraq-Buxti-Unti,Карахско-бухтинско-унтибское,Qaraq,карахский,Upper Qaraq,в.-карах,NA,NA,NA,avar1256,#009999,#009999,2024-09-19
165,Sogratl,Согратль,42.2808,46.9914,Avar,Avar-Andic,East Caucasian,NA,Avar,Andalal,Андалальское,Soghratl,согратльский,NA,NA,NA,NA,NA,avar1256,#009999,#009999,2024-09-19
166,Obokh,Обох,42.28362,47.03734,Avar,Avar-Andic,East Caucasian,NA,Avar,Andalal,Андалальское,Obokh,обохский,NA,NA,NA,NA,NA,avar1256,#009999,#009999,2024-09-19
167,Albaniya,Албания,42.2863,46.3985,Avar,Avar-Andic,East Caucasian,NA,Avar,Antlratl,Анкратльское,Northern Antlratl,северноанкратльский,Tash,ташский,NA,NA,NA,NA,NA,NA,2024-09-19
168,Khindakh,Хиндах,42.29807,46.39071,Avar,Avar-Andic,East Caucasian,NA,Avar,Antlratl,Анкратльское,Northern Antlratl,северноанкратльский,Tash,ташский,NA,NA,NA,NA,NA,NA,2024-09-19
169,Gamsutl,Гамсутль,42.301972,46.996315,Avar,Avar-Andic,East Caucasian,NA,Avar,Andalal,Андалальское,Ghamsutl,гамсутлинский,NA,NA,NA,NA,NA,avar1256,#009999,#009999,2024-09-19
170,Kversatl,Кверсатль,42.302562,46.392793,Avar,Avar-Andic,East Caucasian,NA,Avar,Antlratl,Анкратльское,Northern Antlratl,северноанкратльский,Tash,ташский,NA,NA,NA,avar1256,#009999,#009999,2024-09-19
171,Somoda,Сомода,42.30272,46.5368,Avar,Avar-Andic,East Caucasian,NA,Avar,Hid-Qeleb,Гидское,Qeleb,келебский,NA,NA,NA,NA,NA,avar1256,#009999,#009999,2024-09-19
172,Batsada,Бацада,42.3036,46.9092,Avar,Avar-Andic,East Caucasian,NA,Avar,Qaraq-Buxti-Unti,Карахско-бухтинско-унтибское,Unti-Bets,унтибско-бацадинский,Bets,бацадинский,NA,NA,NA,avar1256,#009999,#009999,2024-09-19
173,Kishdatl,Кишдатль,42.304638,46.342239,Avar,Avar-Andic,East Caucasian,NA,Avar,Antlratl,Анкратльское,Northern Antlratl,северноанкратльский,Tash,ташский,NA,NA,NA,avar1256,#009999,#009999,2024-09-19
174,Charakh,Чарах,42.30607,46.35715,Avar,Avar-Andic,East Caucasian,NA,Avar,Antlratl,Анкратльское,Northern Antlratl,северноанкратльский,Tash,ташский,NA,NA,NA,NA,NA,NA,2024-09-19
175,Shulani,Шулани,42.3067,46.9294,Avar,Avar-Andic,East Caucasian,NA,Avar,Qaraq-Buxti-Unti,Карахско-бухтинско-унтибское,Unti-Bets,унтибско-бацадинский,Shulen,шуланинский,NA,NA,NA,avar1256,#009999,#009999,2024-09-19
176,Izta,Изта,42.30889,46.35667,Avar,Avar-Andic,East Caucasian,NA,Avar,Antlratl,Анкратльское,Northern Antlratl,северноанкратльский,Tash,ташский,NA,NA,NA,avar1256,#009999,#009999,2024-09-19
177,Mikdatl,Микдатль,42.309412,46.380732,Avar,Avar-Andic,East Caucasian,NA,Avar,Antlratl,Анкратльское,Northern Antlratl,северноанкратльский,Tash,ташский,NA,NA,NA,avar1256,#009999,#009999,2024-09-19
178,Tilanib,Тиланиб,42.310964,46.366528,Avar,Avar-Andic,East Caucasian,NA,Avar,Antlratl,Анкратльское,Northern Antlratl,северноанкратльский,Tash,ташский,NA,NA,NA,avar1256,#009999,#009999,2024-09-19
179,Sabda,Сабда,42.311355,46.371346,Avar,Avar-Andic,East Caucasian,NA,Avar,Antlratl,Анкратльское,Northern Antlratl,северноанкратльский,Tash,ташский,NA,NA,NA,avar1256,#009999,#009999,2024-09-19
180,Unty,Унты,42.311452,46.944631,Avar,Avar-Andic,East Caucasian,NA,Avar,Qaraq-Buxti-Unti,Карахско-бухтинско-унтибское,Unti-Bets,унтибско-бацадинский,Unti-Kulla,унтибско-кулабский,NA,NA,NA,avar1256,#009999,#009999,2024-09-19
181,Kulla,Кулла,42.31346,46.91014,Avar,Avar-Andic,East Caucasian,NA,Avar,Qaraq-Buxti-Unti,Карахско-бухтинско-унтибское,Unti-Bets,унтибско-бацадинский,Unti-Kulla,унтибско-кулабский,NA,NA,NA,avar1256,#009999,#009999,2024-09-19
182,Rugelda,Ругельда,42.3175,46.5244,Avar,Avar-Andic,East Caucasian,NA,Avar,Hid-Qeleb,Гидское,Qeleb,келебский,NA,NA,NA,NA,NA,avar1256,#009999,#009999,2024-09-19
183,Chokh,Чох,42.3206,47.0336,Avar,Avar-Andic,East Caucasian,NA,Avar,Andalal,Андалальское,Chukh,чохский,NA,NA,NA,NA,NA,avar1256,#009999,#009999,2024-09-19
184,Urchukh,Урчух,42.325548,46.495518,Avar,Avar-Andic,East Caucasian,NA,Avar,Hid-Qeleb,Гидское,Qeleb,келебский,NA,NA,NA,NA,NA,avar1256,#009999,#009999,2024-09-19
185,Unkida,Ункида,42.328698,46.885731,Avar,Avar-Andic,East Caucasian,NA,Avar,Andalal,Андалальское,Rughzha,ругуджинский,NA,NA,NA,NA,NA,avar1256,#009999,#009999,2024-09-19
186,Musrukh,Мусрух,42.32897,46.51614,Avar,Avar-Andic,East Caucasian,NA,Avar,Hid-Qeleb,Гидское,Qeleb,келебский,NA,NA,NA,NA,NA,avar1256,#009999,#009999,2024-09-19
187,Khonokh,Хонох,42.3311591,46.130717,Avar,Avar-Andic,East Caucasian,NA,Avar,Hid-Qeleb,Гидское,Qeleb,келебский,NA,NA,NA,NA,NA,khva1239,#993333,#ff5050,2024-09-19
188,Khindakh,Хиндах,42.3340379,46.5021254,Avar,Avar-Andic,East Caucasian,NA,Avar,Hid-Qeleb,Гидское,Qeleb,келебский,NA,NA,NA,NA,NA,NA,NA,NA,2024-09-19
189,Chuni,Чуни,42.34832,47.30303,Avar,Avar-Andic,East Caucasian,NA,Avar,Baqluq-Northern Avar,Батлухско-северное,Northern Avar,северноаварский,North-Eastern Avar,северовосточноаварский,гергебильский,NA,NA,avar1256,#009999,#009999,2024-09-19
190,Khopor,Хопор,42.352716,46.937396,Avar,Avar-Andic,East Caucasian,NA,Avar,Andalal,Андалальское,Rughzha,ругуджинский,NA,NA,NA,NA,NA,avar1256,#009999,#009999,2024-09-19
191,Rugudzha,Ругуджа,42.3606,46.9139,Avar,Avar-Andic,East Caucasian,NA,Avar,Andalal,Андалальское,Rughzha,ругуджинский,NA,NA,NA,NA,NA,avar1256,#009999,#009999,2024-09-19
192,Kommuna,Коммуна,42.3656,46.9686,Avar,Avar-Andic,East Caucasian,NA,Avar,Andalal,Андалальское,Chukh,чохский,NA,NA,NA,NA,NA,avar1256,#009999,#009999,2024-09-19
193,Kudali,Кудали,42.3678,47.0789,Avar,Avar-Andic,East Caucasian,NA,Avar,Kuyada-Salta,Куяда-салтинское,Kudali-Salta,кудали-салтинский,NA,NA,NA,NA,NA,avar1256,#009999,#009999,2024-09-19
194,Genta,Гента,42.37001,46.56099,Avar,Avar-Andic,East Caucasian,NA,Avar,Hid-Qeleb,Гидское,Hid,гидский сбс,Urada,урадинский,NA,NA,NA,avar1256,#009999,#009999,2024-09-19
195,Ravkvatl,Равкватль,42.372455,46.579617,Avar,Avar-Andic,East Caucasian,NA,Avar,Hid-Qeleb,Гидское,Hid,гидский сбс,NA,NA,NA,NA,NA,avar1256,#009999,#009999,2024-09-19
196,Keger,Кегер,42.3767,47.0275,Avar,Avar-Andic,East Caucasian,NA,Avar,Andalal,Андалальское,Kohorib,кегерский,NA,NA,NA,NA,NA,avar1256,#009999,#009999,2024-09-19
197,Machada,Мачада,42.37777,46.535,Avar,Avar-Andic,East Caucasian,NA,Avar,Kuyada-Salta,Куяда-салтинское,Kuyada,куядинский,NA,NA,NA,NA,NA,NA,NA,NA,2024-09-19
198,Machada,Мачада,42.37839,46.53725,Avar,Avar-Andic,East Caucasian,NA,Avar,Hid-Qeleb,Гидское,Hid,гидский сбс,Machada,мачадинский,NA,NA,NA,NA,NA,NA,2024-09-19
199,Dagbash,Дагбаш,42.380347,46.351961,Avar,Avar-Andic,East Caucasian,NA,Avar,Hid-Qeleb,Гидское,Daghbash,дагбашский,NA,NA,NA,NA,NA,avar1256,#009999,#009999,2024-09-19
200,Urada,Урада,42.3822,46.5617,Avar,Avar-Andic,East Caucasian,NA,Avar,Hid-Qeleb,Гидское,Hid,гидский сбс,Urada,урадинский,NA,NA,NA,avar1256,#009999,#009999,2024-09-19
201,Silta,Силта,42.38728,47.07127,Avar,Avar-Andic,East Caucasian,NA,Avar,Kuyada-Salta,Куяда-салтинское,Kudali-Salta,кудали-салтинский,NA,NA,NA,NA,NA,avar1256,#009999,#009999,2024-09-19
202,Gunib,Гуниб,42.388232,46.962258,Avar,Avar-Andic,East Caucasian,NA,Avar,Andalal,Андалальское,mixed,смеш.,NA,NA,NA,NA,NA,avar1256,#009999,#009999,2024-09-19
203,Tidib,Тидиб,42.3889,46.5742,Avar,Avar-Andic,East Caucasian,NA,Avar,Hid-Qeleb,Гидское,Hid,гидский сбс,Urada,урадинский,NA,NA,NA,avar1256,#009999,#009999,2024-09-19
204,Uradakolob,Урадаколоб,42.389247,46.538713,Avar,Avar-Andic,East Caucasian,NA,Avar,Hid-Qeleb,Гидское,Hid,гидский сбс,NA,NA,NA,NA,NA,NA,NA,NA,2024-09-19
205,Tlyakh,Тлях,42.389928,46.540021,Avar,Avar-Andic,East Caucasian,NA,Avar,Hid-Qeleb,Гидское,Hid,гидский сбс,Tlaq,тляхский,NA,NA,NA,avar1256,#009999,#009999,2024-09-19
206,Metrada,Метрада,42.393034,45.888954,Avar,Avar-Andic,East Caucasian,NA,Avar,Baqluq-Northern Avar,Батлухско-северное,Northern Avar,северноаварский,Unqratl,ункратльский,NA,NA,NA,avar1256,#009999,#009999,2024-09-19
207,Khotoda,Хотода,42.39393,46.559446,Avar,Avar-Andic,East Caucasian,NA,Avar,Hid-Qeleb,Гидское,Hid,гидский сбс,NA,NA,NA,NA,NA,avar1256,#009999,#009999,2024-09-19
208,Gidatlinskiy Most,Гидатлинский Мост,42.395122,46.514566,Avar,Avar-Andic,East Caucasian,NA,Avar,Hid-Qeleb,Гидское,Hid,гидский сбс,NA,NA,NA,NA,NA,NA,NA,NA,2024-09-19
209,Salta,Салта,42.39589,47.07048,Avar,Avar-Andic,East Caucasian,NA,Avar,Kuyada-Salta,Куяда-салтинское,Kudali-Salta,кудали-салтинский,NA,NA,NA,NA,NA,avar1256,#009999,#009999,2024-09-19
210,Nakitl,Накитль,42.398,46.608663,Avar,Avar-Andic,East Caucasian,NA,Avar,Hid-Qeleb,Гидское,Hid,гидский сбс,Urada,урадинский,NA,NA,NA,NA,NA,NA,2024-09-19
211,Khuchada,Хучада,42.400235,46.469178,Avar,Avar-Andic,East Caucasian,NA,Avar,Hid-Qeleb,Гидское,Hid,гидский сбс,NA,NA,NA,NA,NA,avar1256,#009999,#009999,2024-09-19
212,Khindakh,Хиндах,42.4009913,46.9701535,Avar,Avar-Andic,East Caucasian,NA,Avar,Andalal,Андалальское,Hotoch-Khindakh,хоточ-хиндахский,NA,NA,NA,NA,NA,NA,NA,NA,2024-09-19
213,Khamagib,Хамагиб,42.402538,46.850422,Avar,Avar-Andic,East Caucasian,NA,Avar,Kuyada-Salta,Куяда-салтинское,Kuyada,куядинский,NA,NA,NA,NA,NA,avar1256,#009999,#009999,2024-09-19
214,Nizhnyy Keger,Нижний Кегер,42.4028495,46.9784678,Avar,Avar-Andic,East Caucasian,NA,Avar,Andalal,Андалальское,Kohorib,кегерский,NA,NA,NA,NA,NA,NA,NA,NA,2024-09-19
215,Obonub,Обонуб,42.40556,46.83972,Avar,Avar-Andic,East Caucasian,NA,Avar,Kuyada-Salta,Куяда-салтинское,Kuyada,куядинский,NA,NA,NA,NA,NA,avar1256,#009999,#009999,2024-09-19
216,Enseruda,Энсеруда,42.40611,46.85278,Avar,Avar-Andic,East Caucasian,NA,Avar,Kuyada-Salta,Куяда-салтинское,Kuyada,куядинский,NA,NA,NA,NA,NA,avar1256,#009999,#009999,2024-09-19
217,Chonob,Чоноб,42.407666999999996,46.853808,Avar,Avar-Andic,East Caucasian,NA,Avar,Kuyada-Salta,Куяда-салтинское,Kuyada,куядинский,NA,NA,NA,NA,NA,avar1256,#009999,#009999,2024-09-19
218,Batsikvarikh,Бацикварих,42.408056,46.858611,Avar,Avar-Andic,East Caucasian,NA,Avar,Kuyada-Salta,Куяда-салтинское,Kuyada,куядинский,NA,NA,NA,NA,NA,NA,NA,NA,2024-09-19
219,Khotoch,Хоточ,42.408408,46.954024,Avar,Avar-Andic,East Caucasian,NA,Avar,Andalal,Андалальское,Hotoch-Khindakh,хоточ-хиндахский,NA,NA,NA,NA,NA,avar1256,#009999,#009999,2024-09-19
220,Tsikhalakh,Цихалах,42.408702,45.824852,Avar,Avar-Andic,East Caucasian,NA,Avar,Baqluq-Northern Avar,Батлухско-северное,Northern Avar,северноаварский,Unqratl,ункратльский,NA,NA,NA,NA,NA,NA,2024-09-19
221,Egeda,Эгеда,42.409124,46.844276,Avar,Avar-Andic,East Caucasian,NA,Avar,Kuyada-Salta,Куяда-салтинское,Kuyada,куядинский,NA,NA,NA,NA,NA,avar1256,#009999,#009999,2024-09-19
222,Zazilkala,Зазилькала,42.4094,46.8117,Avar,Avar-Andic,East Caucasian,NA,Avar,Kuyada-Salta,Куяда-салтинское,Kuyada,куядинский,NA,NA,NA,NA,NA,NA,NA,NA,2024-09-19
223,Amuarib,Амуариб,42.40959,46.847611,Avar,Avar-Andic,East Caucasian,NA,Avar,Kuyada-Salta,Куяда-салтинское,Kuyada,куядинский,NA,NA,NA,NA,NA,NA,NA,NA,2024-09-19
224,Ashabil-Kuli,Асхабиль-Кули,42.409844,46.854478,Avar,Avar-Andic,East Caucasian,NA,Avar,Kuyada-Salta,Куяда-салтинское,Kuyada,куядинский,NA,NA,NA,NA,NA,NA,NA,NA,2024-09-19
225,Nizhnee Khvarshini,Нижнее Хваршини,42.4108,45.8697,Avar,Avar-Andic,East Caucasian,NA,Avar,Baqluq-Northern Avar,Батлухско-северное,Northern Avar,северноаварский,Unqratl,ункратльский,NA,NA,NA,avar1256,#009999,#009999,2024-09-19
226,Verkhnee Khvarshini,Верхнее Хваршини,42.41088,45.84551,Avar,Avar-Andic,East Caucasian,NA,Avar,Baqluq-Northern Avar,Батлухско-северное,Northern Avar,северноаварский,Unqratl,ункратльский,NA,NA,NA,avar1256,#009999,#009999,2024-09-19
227,Agada,Агада,42.412001,46.841895,Avar,Avar-Andic,East Caucasian,NA,Avar,Kuyada-Salta,Куяда-салтинское,Kuyada,куядинский,NA,NA,NA,NA,NA,avar1256,#009999,#009999,2024-09-19
228,Gazilala,Газилала,42.4124,46.8079,Avar,Avar-Andic,East Caucasian,NA,Avar,Kuyada-Salta,Куяда-салтинское,Kuyada,куядинский,NA,NA,NA,NA,NA,NA,NA,NA,2024-09-19
229,Lakhchayda,Лахчайда,42.41345,46.8378,Avar,Avar-Andic,East Caucasian,NA,Avar,Kuyada-Salta,Куяда-салтинское,Kuyada,куядинский,NA,NA,NA,NA,NA,avar1256,#009999,#009999,2024-09-19
230,Rosutl,Росутль,42.41533,46.8308,Avar,Avar-Andic,East Caucasian,NA,Avar,Kuyada-Salta,Куяда-салтинское,Kuyada,куядинский,NA,NA,NA,NA,NA,avar1256,#009999,#009999,2024-09-19
231,Ala,Ала,42.415472,46.837085,Avar,Avar-Andic,East Caucasian,NA,Avar,Kuyada-Salta,Куяда-салтинское,Kuyada,куядинский,NA,NA,NA,NA,NA,avar1256,#009999,#009999,2024-09-19
232,Khoroda,Хорода,42.4155479,46.6730288,Avar,Avar-Andic,East Caucasian,NA,Avar,Baqluq-Northern Avar,Батлухско-северное,Qeh,кахибский,NA,NA,NA,NA,NA,NA,NA,NA,2024-09-19
233,Sekh,Сех,42.416094,46.826447,Avar,Avar-Andic,East Caucasian,NA,Avar,Kuyada-Salta,Куяда-салтинское,Kuyada,куядинский,NA,NA,NA,NA,NA,avar1256,#009999,#009999,2024-09-19
234,Ziurib,Зиуриб,42.41789,46.705088,Avar,Avar-Andic,East Caucasian,NA,Avar,Baqluq-Northern Avar,Батлухско-северное,Northern Avar,северноаварский,North-Eastern Avar,северовосточноаварский,телетлинский,NA,NA,avar1256,#009999,#009999,2024-09-19
235,Dadulazda,Дадулазда,42.4189,46.80373,Avar,Avar-Andic,East Caucasian,NA,Avar,Kuyada-Salta,Куяда-салтинское,Kuyada,куядинский,NA,NA,NA,NA,NA,avar1256,#009999,#009999,2024-09-19
236,Tlogob,Тлогоб,42.4189,46.8153,Avar,Avar-Andic,East Caucasian,NA,Avar,Kuyada-Salta,Куяда-салтинское,Kuyada,куядинский,NA,NA,NA,NA,NA,avar1256,#009999,#009999,2024-09-19
237,Ivaylazda,Ивайлазда,42.42,46.79917,Avar,Avar-Andic,East Caucasian,NA,Avar,Kuyada-Salta,Куяда-салтинское,Kuyada,куядинский,NA,NA,NA,NA,NA,avar1256,#009999,#009999,2024-09-19
238,Tsamla,Цамла,42.420013,46.841042,Avar,Avar-Andic,East Caucasian,NA,Avar,Kuyada-Salta,Куяда-салтинское,Kuyada,куядинский,NA,NA,NA,NA,NA,avar1256,#009999,#009999,2024-09-19
239,Mugdab,Мугдаб,42.420445,46.807523,Avar,Avar-Andic,East Caucasian,NA,Avar,Kuyada-Salta,Куяда-салтинское,Kuyada,куядинский,NA,NA,NA,NA,NA,avar1256,#009999,#009999,2024-09-19
240,Umaylasulazda,Умайласулазда,42.421132,46.822734,Avar,Avar-Andic,East Caucasian,NA,Avar,Kuyada-Salta,Куяда-салтинское,Kuyada,куядинский,NA,NA,NA,NA,NA,NA,NA,NA,2024-09-19
241,Tlezda,Тлезда,42.421358,46.721564,Avar,Avar-Andic,East Caucasian,NA,Avar,Baqluq-Northern Avar,Батлухско-северное,Northern Avar,северноаварский,North-Eastern Avar,северовосточноаварский,телетлинский,NA,NA,avar1256,#009999,#009999,2024-09-19
242,Malyy Urala,Малый Урала,42.42216,46.80506,Avar,Avar-Andic,East Caucasian,NA,Avar,Kuyada-Salta,Куяда-салтинское,Kuyada,куядинский,NA,NA,NA,NA,NA,avar1256,#009999,#009999,2024-09-19
243,Kutisha,Кутиша,42.4236,47.2831,Avar,Avar-Andic,East Caucasian,NA,Avar,Baqluq-Northern Avar,Батлухско-северное,Northern Avar,северноаварский,North-Eastern Avar,северовосточноаварский,гергебильский,NA,NA,avar1256,#009999,#009999,2024-09-19
244,Urala,Урала,42.423609,46.806499,Avar,Avar-Andic,East Caucasian,NA,Avar,Kuyada-Salta,Куяда-салтинское,Kuyada,куядинский,NA,NA,NA,NA,NA,NA,NA,NA,2024-09-19
245,Mokoda,Мокода,42.42385,46.66963,Avar,Avar-Andic,East Caucasian,NA,Avar,Baqluq-Northern Avar,Батлухско-северное,Qeh,кахибский,NA,NA,NA,NA,NA,avar1256,#009999,#009999,2024-09-19
246,Basar,Басар,42.423889,46.793333,Avar,Avar-Andic,East Caucasian,NA,Avar,Kuyada-Salta,Куяда-салтинское,Kuyada,куядинский,NA,NA,NA,NA,NA,NA,NA,NA,2024-09-19
247,Bolshoy Urala,Большой Урала,42.424277,46.805844,Avar,Avar-Andic,East Caucasian,NA,Avar,Kuyada-Salta,Куяда-салтинское,Kuyada,куядинский,NA,NA,NA,NA,NA,avar1256,#009999,#009999,2024-09-19
248,Tsalada,Цалада,42.42472,46.81472,Avar,Avar-Andic,East Caucasian,NA,Avar,Kuyada-Salta,Куяда-салтинское,Kuyada,куядинский,NA,NA,NA,NA,NA,avar1256,#009999,#009999,2024-09-19
249,Baldutl,Балдутль,42.424861,46.790577,Avar,Avar-Andic,East Caucasian,NA,Avar,Kuyada-Salta,Куяда-салтинское,Kuyada,куядинский,NA,NA,NA,NA,NA,NA,NA,NA,2024-09-19
250,Genitsurib,Геницуриб,42.425104,46.705356,Avar,Avar-Andic,East Caucasian,NA,Avar,Baqluq-Northern Avar,Батлухско-северное,Northern Avar,северноаварский,North-Eastern Avar,северовосточноаварский,телетлинский,NA,NA,avar1256,#009999,#009999,2024-09-19
251,Khatsunob,Хацуноб,42.425883,46.794512,Avar,Avar-Andic,East Caucasian,NA,Avar,Kuyada-Salta,Куяда-салтинское,Kuyada,куядинский,NA,NA,NA,NA,NA,NA,NA,NA,2024-09-19
252,Verkhniy Kolob,Верхний Колоб,42.42614,46.6579,Avar,Avar-Andic,East Caucasian,NA,Avar,Baqluq-Northern Avar,Батлухско-северное,Qeh,кахибский,NA,NA,NA,NA,NA,avar1256,#009999,#009999,2024-09-19
253,Kakhib,Кахиб,42.4272,46.5969,Avar,Avar-Andic,East Caucasian,NA,Avar,Baqluq-Northern Avar,Батлухско-северное,Qeh,кахибский,NA,NA,NA,NA,NA,avar1256,#009999,#009999,2024-09-19
254,Khenda,Хенда,42.427657,46.802795,Avar,Avar-Andic,East Caucasian,NA,Avar,Kuyada-Salta,Куяда-салтинское,Kuyada,куядинский,NA,NA,NA,NA,NA,NA,NA,NA,2024-09-19
255,Khamakal,Хамакал,42.428109,46.674497,Avar,Avar-Andic,East Caucasian,NA,Avar,Baqluq-Northern Avar,Батлухско-северное,Qeh,кахибский,NA,NA,NA,NA,NA,avar1256,#009999,#009999,2024-09-19
256,Balanub,Балануб,42.4284,46.8251,Avar,Avar-Andic,East Caucasian,NA,Avar,Kuyada-Salta,Куяда-салтинское,Kuyada,куядинский,NA,NA,NA,NA,NA,avar1256,#009999,#009999,2024-09-19
257,Teletl,Телетль,42.4289,46.7317,Avar,Avar-Andic,East Caucasian,NA,Avar,Baqluq-Northern Avar,Батлухско-северное,Northern Avar,северноаварский,North-Eastern Avar,северовосточноаварский,телетлинский,NA,NA,avar1256,#009999,#009999,2024-09-19
258,Khebdib,Хебдиб,42.43,46.86,Avar,Avar-Andic,East Caucasian,NA,Avar,Kuyada-Salta,Куяда-салтинское,Kuyada,куядинский,NA,NA,NA,NA,NA,avar1256,#009999,#009999,2024-09-19
259,Nizhniy Kolob,Нижний Колоб,42.430087,46.659303,Avar,Avar-Andic,East Caucasian,NA,Avar,Baqluq-Northern Avar,Батлухско-северное,Qeh,кахибский,NA,NA,NA,NA,NA,avar1256,#009999,#009999,2024-09-19
260,Verkhniy Togokh,Верхний Тогох,42.430206,46.698316,Avar,Avar-Andic,East Caucasian,NA,Avar,Baqluq-Northern Avar,Батлухско-северное,Northern Avar,северноаварский,North-Eastern Avar,северовосточноаварский,телетлинский,NA,NA,avar1256,#009999,#009999,2024-09-19
261,Kienikh,Киэних,42.430326,46.666677,Avar,Avar-Andic,East Caucasian,NA,Avar,Baqluq-Northern Avar,Батлухско-северное,Qeh,кахибский,NA,NA,NA,NA,NA,NA,NA,NA,2024-09-19
262,Kuker,Кукер,42.43106,46.80982,Avar,Avar-Andic,East Caucasian,NA,Avar,Kuyada-Salta,Куяда-салтинское,Kuyada,куядинский,NA,NA,NA,NA,NA,avar1256,#009999,#009999,2024-09-19
263,Garbilazda,Гарбилазда,42.431149,46.816819,Avar,Avar-Andic,East Caucasian,NA,Avar,Kuyada-Salta,Куяда-салтинское,Kuyada,куядинский,NA,NA,NA,NA,NA,NA,NA,NA,2024-09-19
264,Goor,Гоор,42.43339,46.56927,Avar,Avar-Andic,East Caucasian,NA,Avar,Baqluq-Northern Avar,Батлухско-северное,Qeh,кахибский,NA,NA,NA,NA,NA,avar1256,#009999,#009999,2024-09-19
265,Nizhniy Togokh,Нижний Тогох,42.43381,46.70246,Avar,Avar-Andic,East Caucasian,NA,Avar,Baqluq-Northern Avar,Батлухско-северное,Northern Avar,северноаварский,North-Eastern Avar,северовосточноаварский,телетлинский,NA,NA,avar1256,#009999,#009999,2024-09-19
266,Mitliurib,Митлиуриб,42.43537,46.68836,Avar,Avar-Andic,East Caucasian,NA,Avar,Baqluq-Northern Avar,Батлухско-северное,Northern Avar,северноаварский,North-Eastern Avar,северовосточноаварский,телетлинский,NA,NA,avar1256,#009999,#009999,2024-09-19
267,Khebda,Хебда,42.443976,46.549984,Avar,Avar-Andic,East Caucasian,NA,Avar,Hid-Qeleb,Гидское,mixed,смеш.,NA,NA,NA,NA,NA,avar1256,#009999,#009999,2024-09-19
268,Murada,Мурада,42.445422,46.954469,Avar,Avar-Andic,East Caucasian,NA,Avar,Kuyada-Salta,Куяда-салтинское,Kudali-Salta,кудали-салтинский,NA,NA,NA,NA,NA,avar1256,#009999,#009999,2024-09-19
269,Goor-Khindakh,Гоор-Хиндах,42.449273,46.575312,Avar,Avar-Andic,East Caucasian,NA,Avar,Baqluq-Northern Avar,Батлухско-северное,Qeh,кахибский,NA,NA,NA,NA,NA,avar1256,#009999,#009999,2024-09-19
270,Koroda,Корода,42.44961,46.846988,Avar,Avar-Andic,East Caucasian,NA,Avar,Baqluq-Northern Avar,Батлухско-северное,Baqluq,батлухский,Qoroda,кородинский,NA,NA,NA,avar1256,#009999,#009999,2024-09-19
271,Gogotl,Гоготль,42.45481,46.76547,Avar,Avar-Andic,East Caucasian,NA,Avar,Baqluq-Northern Avar,Батлухско-северное,Northern Avar,северноаварский,North-Eastern Avar,северовосточноаварский,телетлинский,NA,NA,avar1256,#009999,#009999,2024-09-19
272,Sildi,Сильди,42.4552,45.92715,Avar,Avar-Andic,East Caucasian,NA,Avar,Baqluq-Northern Avar,Батлухско-северное,Northern Avar,северноаварский,Unqratl,ункратльский,NA,NA,NA,avar1256,#009999,#009999,2024-09-19
273,Urib,Уриб,42.4564,46.6736,Avar,Avar-Andic,East Caucasian,NA,Avar,Baqluq-Northern Avar,Батлухско-северное,Northern Avar,северноаварский,North-Eastern Avar,северовосточноаварский,телетлинский,NA,NA,avar1256,#009999,#009999,2024-09-19
274,Khvartikuni,Хвартикуни,42.4569,47.0067,Avar,Avar-Andic,East Caucasian,NA,Avar,Kuyada-Salta,Куяда-салтинское,Kudali-Salta,кудали-салтинский,NA,NA,NA,NA,NA,avar1256,#009999,#009999,2024-09-19
275,Nizhnee Chugli,Нижнее Чугли,42.46318,47.29733,Avar,Avar-Andic,East Caucasian,NA,Avar,Baqluq-Northern Avar,Батлухско-северное,Northern Avar,северноаварский,North-Eastern Avar,северовосточноаварский,гергебильский,NA,NA,avar1256,#009999,#009999,2024-09-19
276,Darada,Дарада,42.465606,46.936573,Avar,Avar-Andic,East Caucasian,NA,Avar,Kuyada-Salta,Куяда-салтинское,Kudali-Salta,кудали-салтинский,NA,NA,NA,NA,NA,avar1256,#009999,#009999,2024-09-19
277,Kurmi,Курми,42.4656736,47.0417493,Avar,Avar-Andic,East Caucasian,?,Avar,Andalal / BNA,Анд / Б.-Сев,mixed,смеш.,NA,NA,NA,NA,NA,NA,NA,NA,2024-09-19
278,Khakhita,Хахита,42.4667,47.2642,Avar,Avar-Andic,East Caucasian,NA,Avar,Baqluq-Northern Avar,Батлухско-северное,Northern Avar,северноаварский,North-Eastern Avar,северовосточноаварский,гергебильский,NA,NA,avar1256,#009999,#009999,2024-09-19
279,Tunzi,Тунзи,42.46888,46.97573,Avar,Avar-Andic,East Caucasian,NA,Avar,Kuyada-Salta,Куяда-салтинское,Kudali-Salta,кудали-салтинский,NA,NA,NA,NA,NA,avar1256,#009999,#009999,2024-09-19
280,Khvarada,Хварада,42.46889,46.99406,Avar,Avar-Andic,East Caucasian,NA,Avar,Kuyada-Salta,Куяда-салтинское,Kudali-Salta,кудали-салтинский,NA,NA,NA,NA,NA,avar1256,#009999,#009999,2024-09-19
281,Gonoda,Гонода,42.4697,46.7892,Avar,Avar-Andic,East Caucasian,NA,Avar,Baqluq-Northern Avar,Батлухско-северное,Northern Avar,северноаварский,North-Eastern Avar,северовосточноаварский,телетлинский,NA,NA,avar1256,#009999,#009999,2024-09-19
282,Gakko,Гакко,42.47024,45.882,Avar,Avar-Andic,East Caucasian,NA,Avar,Baqluq-Northern Avar,Батлухско-северное,Northern Avar,северноаварский,Unqratl,ункратльский,NA,NA,NA,avar1256,#009999,#009999,2024-09-19
283,Karadakh,Карадах,42.471023,46.863724,Avar,Avar-Andic,East Caucasian,NA,Avar,Baqluq-Northern Avar,Батлухско-северное,Baqluq,батлухский,Qoroda,кородинский,NA,NA,NA,avar1256,#009999,#009999,2024-09-19
284,Assab,Ассаб,42.471596,46.492475,Avar,Avar-Andic,East Caucasian,NA,Avar,Baqluq-Northern Avar,Батлухско-северное,Baqluq,батлухский,Asab,ассабский,NA,NA,NA,avar1256,#009999,#009999,2024-09-19
285,Datuna,Датуна,42.47357,46.64364,Avar,Avar-Andic,East Caucasian,NA,Avar,Baqluq-Northern Avar,Батлухско-северное,Northern Avar,северноаварский,Khunz,хунзахский,NA,NA,NA,avar1256,#009999,#009999,2024-09-19
286,Iputa,Ипута,42.47852,46.96592,Avar,Avar-Andic,East Caucasian,NA,Avar,Kuyada-Salta,Куяда-салтинское,Kudali-Salta,кудали-салтинский,NA,NA,NA,NA,NA,avar1256,#009999,#009999,2024-09-19
287,Zanata,Заната,42.485146,46.552771,Avar,Avar-Andic,East Caucasian,NA,Avar,Baqluq-Northern Avar,Батлухско-северное,Baqluq,батлухский,Baqluq proper,батлухский сбс,NA,NA,NA,avar1256,#009999,#009999,2024-09-19
288,Nizhniy Batlukh,Нижний Батлух,42.4853,46.5239,Avar,Avar-Andic,East Caucasian,NA,Avar,Baqluq-Northern Avar,Батлухско-северное,Baqluq,батлухский,Baqluq proper,батлухский сбс,NA,NA,NA,avar1256,#009999,#009999,2024-09-19
289,Maali,Маали,42.4858,46.9197,Avar,Avar-Andic,East Caucasian,NA,Avar,Kuyada-Salta,Куяда-салтинское,Kudali-Salta,кудали-салтинский,NA,NA,NA,NA,NA,avar1256,#009999,#009999,2024-09-19
290,Golotl,Голотль,42.485962,46.735698,Avar,Avar-Andic,East Caucasian,NA,Avar,Baqluq-Northern Avar,Батлухско-северное,Baqluq,батлухский,Holotl,голотлинский,NA,NA,NA,avar1256,#009999,#009999,2024-09-19
291,Uzdalroso,Уздалросо,42.48612,46.85577,Avar,Avar-Andic,East Caucasian,NA,Avar,Baqluq-Northern Avar,Батлухско-северное,Northern Avar,северноаварский,North-Eastern Avar,северовосточноаварский,телетлинский,NA,NA,avar1256,#009999,#009999,2024-09-19
292,Zaib,Заиб,42.489364,46.707472,Avar,Avar-Andic,East Caucasian,NA,Avar,Baqluq-Northern Avar,Батлухско-северное,Northern Avar,северноаварский,Khunz,хунзахский,NA,NA,NA,avar1256,#009999,#009999,2024-09-19
293,Orada Chugli,Орада Чугли,42.493368,47.2217351,Avar,Avar-Andic,East Caucasian,NA,Avar,Baqluq-Northern Avar,Батлухско-северное,Northern Avar,северноаварский,North-Eastern Avar,северовосточноаварский,гергебильский,NA,NA,NA,NA,NA,2024-09-19
294,Sasitli,Саситли,42.496173,45.996762,Avar,Avar-Andic,East Caucasian,NA,Avar,Baqluq-Northern Avar,Батлухско-северное,Northern Avar,северноаварский,Unqratl,ункратльский,NA,NA,NA,avar1256,#009999,#009999,2024-09-19
295,Verkhniy Batlukh,Верхний Батлух,42.496276,46.502217,Avar,Avar-Andic,East Caucasian,NA,Avar,Baqluq-Northern Avar,Батлухско-северное,Baqluq,батлухский,Baqluq proper,батлухский сбс,NA,NA,NA,avar1256,#009999,#009999,2024-09-19
296,Tagada,Тагада,42.497573,46.868389,Avar,Avar-Andic,East Caucasian,NA,Avar,Baqluq-Northern Avar,Батлухско-северное,Northern Avar,северноаварский,North-Eastern Avar,северовосточноаварский,телетлинский,NA,NA,avar1256,#009999,#009999,2024-09-19
297,Kakhikal,Кахикал,42.499065,46.874809,Avar,Avar-Andic,East Caucasian,NA,Avar,Baqluq-Northern Avar,Батлухско-северное,Northern Avar,северноаварский,North-Eastern Avar,северовосточноаварский,телетлинский,NA,NA,avar1256,#009999,#009999,2024-09-19
298,Akushali,Акушали,42.4992,46.9504,Avar,Avar-Andic,East Caucasian,NA,Avar,Kuyada-Salta,Куяда-салтинское,Kudali-Salta,кудали-салтинский,NA,NA,NA,NA,NA,avar1256,#009999,#009999,2024-09-19
299,Mogokh,Могох,42.49944,46.57472,Avar,Avar-Andic,East Caucasian,NA,Avar,Baqluq-Northern Avar,Батлухско-северное,Baqluq,батлухский,Baqluq proper,батлухский сбс,NA,NA,NA,NA,NA,NA,2024-09-19
300,Gotsatl Malyy,Гоцатль Малый,42.5041,46.88829,Avar,Avar-Andic,East Caucasian,NA,Avar,Baqluq-Northern Avar,Батлухско-северное,Northern Avar,северноаварский,North-Eastern Avar,северовосточноаварский,телетлинский,NA,NA,avar1256,#009999,#009999,2024-09-19
301,Gergebil,Гергебиль,42.5047,47.0661,Avar,Avar-Andic,East Caucasian,NA,Avar,Baqluq-Northern Avar,Батлухско-северное,Northern Avar,северноаварский,North-Eastern Avar,северовосточноаварский,гергебильский,NA,NA,avar1256,#009999,#009999,2024-09-19
302,Nakitl,Накитль,42.507,46.656,Avar,Avar-Andic,East Caucasian,NA,Avar,Baqluq-Northern Avar,Батлухско-северное,Northern Avar,северноаварский,Khunz,хунзахский,NA,NA,NA,NA,NA,NA,2024-09-19
303,Kuanib,Куаниб,42.509735,46.611385,Avar,Avar-Andic,East Caucasian,NA,Avar,Baqluq-Northern Avar,Батлухско-северное,Northern Avar,северноаварский,Khunz,хунзахский,NA,NA,NA,avar1256,#009999,#009999,2024-09-19
304,Andykh,Андых,42.5119,46.5939,Avar,Avar-Andic,East Caucasian,NA,Avar,Baqluq-Northern Avar,Батлухско-северное,Northern Avar,северноаварский,Khunz,хунзахский,NA,NA,NA,avar1256,#009999,#009999,2024-09-19
305,Kikuni,Кикуни,42.513979,47.036122,Avar,Avar-Andic,East Caucasian,NA,Avar,Baqluq-Northern Avar,Батлухско-северное,Northern Avar,северноаварский,North-Eastern Avar,северовосточноаварский,гергебильский,NA,NA,avar1256,#009999,#009999,2024-09-19
306,Gotsatl Bolshoy,Гоцатль Большой,42.51862,46.88262,Avar,Avar-Andic,East Caucasian,NA,Avar,Baqluq-Northern Avar,Батлухско-северное,Northern Avar,северноаварский,North-Eastern Avar,северовосточноаварский,телетлинский,NA,NA,avar1256,#009999,#009999,2024-09-19
307,Nitab,Нитаб,42.51925,46.63256,Avar,Avar-Andic,East Caucasian,NA,Avar,Baqluq-Northern Avar,Батлухско-северное,Northern Avar,северноаварский,Khunz,хунзахский,NA,NA,NA,avar1256,#009999,#009999,2024-09-19
308,Kedi,Кеди,42.52611,45.96639,Avar,Avar-Andic,East Caucasian,NA,Avar,Baqluq-Northern Avar,Батлухско-северное,Northern Avar,северноаварский,Unqratl,ункратльский,NA,NA,NA,avar1256,#009999,#009999,2024-09-19
309,Khini,Хини,42.52767,46.70496,Avar,Avar-Andic,East Caucasian,NA,Avar,Baqluq-Northern Avar,Батлухско-северное,Northern Avar,северноаварский,Khunz,хунзахский,NA,NA,NA,avar1256,#009999,#009999,2024-09-19
310,Aymaki,Аймаки,42.5342,47.1383,Avar,Avar-Andic,East Caucasian,NA,Avar,Baqluq-Northern Avar,Батлухско-северное,Northern Avar,северноаварский,North-Eastern Avar,северовосточноаварский,гергебильский,NA,NA,avar1256,#009999,#009999,2024-09-19
311,Chalda,Чалда,42.538206,46.920351,Avar,Avar-Andic,East Caucasian,NA,Avar,Baqluq-Northern Avar,Батлухско-северное,Northern Avar,северноаварский,North-Eastern Avar,северовосточноаварский,телетлинский,NA,NA,avar1256,#009999,#009999,2024-09-19
312,Urma,Урма,42.5383,47.2869,Avar,Avar-Andic,East Caucasian,NA,Avar,Baqluq-Northern Avar,Батлухско-северное,Northern Avar,северноаварский,North-Eastern Avar,северовосточноаварский,гергебильский,NA,NA,avar1256,#009999,#009999,2024-09-19
313,Khunzakh,Хунзах,42.5394,46.705,Avar,Avar-Andic,East Caucasian,NA,Avar,Baqluq-Northern Avar,Батлухско-северное,Northern Avar,северноаварский,Khunz,хунзахский,NA,NA,NA,avar1256,#009999,#009999,2024-09-19
314,Kharikolo,Хариколо,42.5451,46.80847,Avar,Avar-Andic,East Caucasian,NA,Avar,Baqluq-Northern Avar,Батлухско-северное,Northern Avar,северноаварский,Khunz,хунзахский,NA,NA,NA,avar1256,#009999,#009999,2024-09-19
315,Baitl,Баитль,42.546452,46.676472,Avar,Avar-Andic,East Caucasian,NA,Avar,Baqluq-Northern Avar,Батлухско-северное,Northern Avar,северноаварский,Khunz,хунзахский,NA,NA,NA,avar1256,#009999,#009999,2024-09-19
316,Chondotl,Чондотль,42.547749,46.659112,Avar,Avar-Andic,East Caucasian,NA,Avar,Baqluq-Northern Avar,Батлухско-северное,Northern Avar,северноаварский,Khunz,хунзахский,NA,NA,NA,avar1256,#009999,#009999,2024-09-19
317,Samilakh,Самилах,42.5477535,46.7069854,Avar,Avar-Andic,East Caucasian,NA,Avar,Baqluq-Northern Avar,Батлухско-северное,Northern Avar,северноаварский,Khunz,хунзахский,NA,NA,NA,NA,NA,NA,2024-09-19
318,Batlaich,Батлаич,42.554821,46.754217,Avar,Avar-Andic,East Caucasian,NA,Avar,Baqluq-Northern Avar,Батлухско-северное,Northern Avar,северноаварский,Khunz,хунзахский,NA,NA,NA,avar1256,#009999,#009999,2024-09-19
319,Arani,Арани,42.5556,46.7225,Avar,Avar-Andic,East Caucasian,NA,Avar,Baqluq-Northern Avar,Батлухско-северное,Northern Avar,северноаварский,Khunz,хунзахский,NA,NA,NA,avar1256,#009999,#009999,2024-09-19
320,Kuletsma,Кулецма,42.5556,47.2339,Avar,Avar-Andic,East Caucasian,NA,Avar,Baqluq-Northern Avar,Батлухско-северное,Northern Avar,северноаварский,North-Eastern Avar,северовосточноаварский,гергебильский,NA,NA,avar1256,#009999,#009999,2024-09-19
321,Okhli,Охли,42.55565,47.209281,Avar,Avar-Andic,East Caucasian,NA,Avar,Baqluq-Northern Avar,Батлухско-северное,Northern Avar,северноаварский,North-Eastern Avar,северовосточноаварский,гергебильский,NA,NA,avar1256,#009999,#009999,2024-09-19
322,Kakh,Ках,42.557664,46.790848,Avar,Avar-Andic,East Caucasian,NA,Avar,Baqluq-Northern Avar,Батлухско-северное,Northern Avar,северноаварский,Khunz,хунзахский,NA,NA,NA,avar1256,#009999,#009999,2024-09-19
323,Gonokh,Гонох,42.56163,46.6896,Avar,Avar-Andic,East Caucasian,NA,Avar,Baqluq-Northern Avar,Батлухско-северное,Northern Avar,северноаварский,Khunz,хунзахский,NA,NA,NA,avar1256,#009999,#009999,2024-09-19
324,Mogokh,Могох,42.561821,46.9168132,Avar,Avar-Andic,East Caucasian,NA,Avar,Baqluq-Northern Avar,Батлухско-северное,Northern Avar,северноаварский,Khunz,хунзахский,NA,NA,NA,NA,NA,NA,2024-09-19
325,Genichutl,Геничутль,42.56455,46.73959,Avar,Avar-Andic,East Caucasian,NA,Avar,Baqluq-Northern Avar,Батлухско-северное,Northern Avar,северноаварский,Khunz,хунзахский,NA,NA,NA,avar1256,#009999,#009999,2024-09-19
326,Tsada,Цада,42.56694,46.7125,Avar,Avar-Andic,East Caucasian,NA,Avar,Baqluq-Northern Avar,Батлухско-северное,Northern Avar,северноаварский,Khunz,хунзахский,NA,NA,NA,avar1256,#009999,#009999,2024-09-19
327,Gozolokolo,Гозолоколо,42.569651,46.61206,Avar,Avar-Andic,East Caucasian,NA,Avar,Baqluq-Northern Avar,Батлухско-северное,Northern Avar,северноаварский,Khunz,хунзахский,NA,NA,NA,avar1256,#009999,#009999,2024-09-19
328,Tukita,Тукита,42.57056,46.37278,Avar,Avar-Andic,East Caucasian,NA,Avar,Baqluq-Northern Avar,Батлухско-северное,Northern Avar,северноаварский,Khunz,хунзахский,NA,NA,NA,kara1474,#666699,#9494b8,2024-09-19
329,Akhkent,Ахкент,42.57353,47.18488,Avar,Avar-Andic,East Caucasian,NA,Avar,Baqluq-Northern Avar,Батлухско-северное,Northern Avar,северноаварский,North-Eastern Avar,северовосточноаварский,гергебильский,NA,NA,avar1256,#009999,#009999,2024-09-19
330,Mesterukh,Местерух,42.5747,46.3964,Avar,Avar-Andic,East Caucasian,NA,Avar,Baqluq-Northern Avar,Батлухско-северное,Northern Avar,северноаварский,Unqratl,ункратльский,NA,NA,NA,avar1256,#009999,#009999,2024-09-19
331,Gortkolo,Гортколо,42.576655,46.63945,Avar,Avar-Andic,East Caucasian,NA,Avar,Baqluq-Northern Avar,Батлухско-северное,Northern Avar,северноаварский,Khunz,хунзахский,NA,NA,NA,avar1256,#009999,#009999,2024-09-19
332,Kudutl,Кудутль,42.5783,47.0194,Avar,Avar-Andic,East Caucasian,NA,Avar,Baqluq-Northern Avar,Батлухско-северное,Northern Avar,северноаварский,North-Eastern Avar,северовосточноаварский,гергебильский,NA,NA,avar1256,#009999,#009999,2024-09-19
333,Oboda,Обода,42.578542,46.668203,Avar,Avar-Andic,East Caucasian,NA,Avar,Baqluq-Northern Avar,Батлухско-северное,Northern Avar,северноаварский,Khunz,хунзахский,NA,NA,NA,avar1256,#009999,#009999,2024-09-19
334,Tumagari,Тумагари,42.58165,46.60662,Avar,Avar-Andic,East Caucasian,NA,Avar,Baqluq-Northern Avar,Батлухско-северное,Northern Avar,северноаварский,Khunz,хунзахский,NA,NA,NA,avar1256,#009999,#009999,2024-09-19
335,Tanusi,Тануси,42.58233,46.69233,Avar,Avar-Andic,East Caucasian,NA,Avar,Baqluq-Northern Avar,Батлухско-северное,Northern Avar,северноаварский,Khunz,хунзахский,NA,NA,NA,avar1256,#009999,#009999,2024-09-19
336,Shotoda,Шотода,42.5824853,46.5788492,Avar,Avar-Andic,East Caucasian,NA,Avar,Baqluq-Northern Avar,Батлухско-северное,Northern Avar,северноаварский,Khunz,хунзахский,NA,NA,NA,NA,NA,NA,2024-09-19
337,Butsra,Буцра,42.58902,46.7677,Avar,Avar-Andic,East Caucasian,NA,Avar,Baqluq-Northern Avar,Батлухско-северное,Northern Avar,северноаварский,Khunz,хунзахский,NA,NA,NA,avar1256,#009999,#009999,2024-09-19
338,Ingerdakh,Ингердах,42.58926,46.398373,Avar,Avar-Andic,East Caucasian,NA,Avar,Baqluq-Northern Avar,Батлухско-северное,Northern Avar,северноаварский,Unqratl,ункратльский,NA,NA,NA,avar1256,#009999,#009999,2024-09-19
339,Gondokori,Гондокори,42.5895667,46.6755481,Avar,Avar-Andic,East Caucasian,NA,Avar,Baqluq-Northern Avar,Батлухско-северное,Northern Avar,северноаварский,Khunz,хунзахский,NA,NA,NA,NA,NA,NA,2024-09-19
340,Kvami,Квами,42.5895667,46.6755481,Avar,Avar-Andic,East Caucasian,NA,Avar,Baqluq-Northern Avar,Батлухско-северное,Northern Avar,северноаварский,Khunz,хунзахский,NA,NA,NA,NA,NA,NA,2024-09-19
341,Gotsob,Гоцоб,42.58963,46.86901,Avar,Avar-Andic,East Caucasian,NA,Avar,Baqluq-Northern Avar,Батлухско-северное,Northern Avar,северноаварский,Khunz,хунзахский,NA,NA,NA,avar1256,#009999,#009999,2024-09-19
342,Khimakoro,Химакоро,42.590092,46.617523,Avar,Avar-Andic,East Caucasian,NA,Avar,Baqluq-Northern Avar,Батлухско-северное,Northern Avar,северноаварский,Khunz,хунзахский,NA,NA,NA,avar1256,#009999,#009999,2024-09-19
343,Kharib,Хариб,42.5911497,46.3972842,Avar,Avar-Andic,East Caucasian,NA,Avar,Baqluq-Northern Avar,Батлухско-северное,Northern Avar,северноаварский,Unqratl,ункратльский,NA,NA,NA,NA,NA,NA,2024-09-19
344,Ebuta,Эбута,42.59275,46.66626,Avar,Avar-Andic,East Caucasian,NA,Avar,Baqluq-Northern Avar,Батлухско-северное,Northern Avar,северноаварский,Khunz,хунзахский,NA,NA,NA,avar1256,#009999,#009999,2024-09-19
345,Gatsalukh,Гацалух,42.59298,46.64949,Avar,Avar-Andic,East Caucasian,NA,Avar,Baqluq-Northern Avar,Батлухско-северное,Northern Avar,северноаварский,Khunz,хунзахский,NA,NA,NA,avar1256,#009999,#009999,2024-09-19
346,Akhalchi,Ахалчи,42.594957,46.631744,Avar,Avar-Andic,East Caucasian,NA,Avar,Baqluq-Northern Avar,Батлухско-северное,Northern Avar,северноаварский,Khunz,хунзахский,NA,NA,NA,avar1256,#009999,#009999,2024-09-19
347,Matlas,Матлас,42.595249,46.605532,Avar,Avar-Andic,East Caucasian,NA,Avar,Baqluq-Northern Avar,Батлухско-северное,Northern Avar,северноаварский,Khunz,хунзахский,NA,NA,NA,avar1256,#009999,#009999,2024-09-19
348,Siukh,Сиух,42.6,46.54722,Avar,Avar-Andic,East Caucasian,NA,Avar,Baqluq-Northern Avar,Батлухско-северное,Northern Avar,северноаварский,Khunz,хунзахский,NA,NA,NA,avar1256,#009999,#009999,2024-09-19
349,Maydanskoe,Майданское,42.601674,46.958927,Avar,Avar-Andic,East Caucasian,NA,Avar,Baqluq-Northern Avar,Батлухско-северное,Northern Avar,северноаварский,Khunz,хунзахский,NA,NA,NA,avar1256,#009999,#009999,2024-09-19
350,Orkachi,Оркачи,42.6058,46.81797,Avar,Avar-Andic,East Caucasian,NA,Avar,Baqluq-Northern Avar,Батлухско-северное,Northern Avar,северноаварский,Khunz,хунзахский,NA,NA,NA,avar1256,#009999,#009999,2024-09-19
351,Alak,Алак,42.6092,46.1972,Avar,Avar-Andic,East Caucasian,NA,Avar,Baqluq-Northern Avar,Батлухско-северное,Northern Avar,северноаварский,Unqratl,ункратльский,NA,NA,NA,avar1256,#009999,#009999,2024-09-19
352,Apshi,Апши,42.6094,47.1742,Avar,Avar-Andic,East Caucasian,NA,Avar,Baqluq-Northern Avar,Батлухско-северное,Northern Avar,северноаварский,North-Eastern Avar,северовосточноаварский,гергебильский,NA,NA,avar1256,#009999,#009999,2024-09-19
353,Arakani,Аракани,42.610078,46.991711,Avar,Avar-Andic,East Caucasian,NA,Avar,Baqluq-Northern Avar,Батлухско-северное,Northern Avar,северноаварский,North-Eastern Avar,северовосточноаварский,гергебильский,NA,NA,avar1256,#009999,#009999,2024-09-19
354,Novoe Kheleturi (Kadari),Новое Хелетури (Кадари),42.611632,46.2269978,Avar,Avar-Andic,East Caucasian,NA,Avar,Baqluq-Northern Avar,Батлухско-северное,Northern Avar,северноаварский,Unqratl,ункратльский,NA,NA,NA,NA,NA,NA,2024-09-19
355,Kheleturi,Хелетури,42.612495,46.225440999999996,Avar,Avar-Andic,East Caucasian,NA,Avar,Baqluq-Northern Avar,Батлухско-северное,Northern Avar,северноаварский,Unqratl,ункратльский,NA,NA,NA,avar1256,#009999,#009999,2024-09-19
356,Zirani,Зирани,42.61797,46.94436,Avar,Avar-Andic,East Caucasian,NA,Avar,Baqluq-Northern Avar,Батлухско-северное,Northern Avar,северноаварский,Khunz,хунзахский,NA,NA,NA,avar1256,#009999,#009999,2024-09-19
357,Tsalkita,Цалкита,42.61798,46.57339,Avar,Avar-Andic,East Caucasian,NA,Avar,Baqluq-Northern Avar,Батлухско-северное,Northern Avar,северноаварский,Khunz,хунзахский,NA,NA,NA,avar1256,#009999,#009999,2024-09-19
358,Tlaylukh,Тлайлух,42.6212754,46.5237166,Avar,Avar-Andic,East Caucasian,NA,Avar,Baqluq-Northern Avar,Батлухско-северное,Northern Avar,северноаварский,Khunz,хунзахский,NA,NA,NA,NA,NA,NA,2024-09-19
359,Tselmes,Цельмес,42.623464,46.538549,Avar,Avar-Andic,East Caucasian,NA,Avar,Baqluq-Northern Avar,Батлухско-северное,Northern Avar,северноаварский,Khunz,хунзахский,NA,NA,NA,avar1256,#009999,#009999,2024-09-19
360,Godoberi,Годобери,42.6258,46.1189,Avar,Avar-Andic,East Caucasian,NA,Avar,Kuyada-Salta,Куяда-салтинское,Kuyada,куядинский,NA,NA,NA,NA,NA,ghod1238,#003399,#9900ff,2024-09-19
361,Amishta,Амишта,42.62967,46.552971,Avar,Avar-Andic,East Caucasian,NA,Avar,Baqluq-Northern Avar,Батлухско-северное,Northern Avar,северноаварский,Khunz,хунзахский,NA,NA,NA,avar1256,#009999,#009999,2024-09-19
362,Balakhani,Балахани,42.63128,46.89514,Avar,Avar-Andic,East Caucasian,NA,Avar,Baqluq-Northern Avar,Батлухско-северное,Northern Avar,северноаварский,Khunz,хунзахский,NA,NA,NA,avar1256,#009999,#009999,2024-09-19
363,Mochokh,Мочох,42.63159,46.61242,Avar,Avar-Andic,East Caucasian,NA,Avar,Baqluq-Northern Avar,Батлухско-северное,Northern Avar,северноаварский,Khunz,хунзахский,NA,NA,NA,avar1256,#009999,#009999,2024-09-19
364,Dzhalaturi,Джалатури,42.631847,46.567028,Avar,Avar-Andic,East Caucasian,NA,Avar,Baqluq-Northern Avar,Батлухско-северное,Northern Avar,северноаварский,Khunz,хунзахский,NA,NA,NA,avar1256,#009999,#009999,2024-09-19
365,Mushuli,Мушули,42.633706,46.498593,Avar,Avar-Andic,East Caucasian,NA,Avar,Baqluq-Northern Avar,Батлухско-северное,Northern Avar,северноаварский,Khunz,хунзахский,NA,NA,NA,avar1256,#009999,#009999,2024-09-19
366,Durangi,Дуранги,42.63571,47.22366,Avar,Avar-Andic,East Caucasian,NA,Avar,Baqluq-Northern Avar,Батлухско-северное,Northern Avar,северноаварский,North-Eastern Avar,северовосточноаварский,гергебильский,NA,NA,avar1256,#009999,#009999,2024-09-19
367,Amushchi Bolshoe,Амущи Большое,42.63752,46.4864,Avar,Avar-Andic,East Caucasian,NA,Avar,Baqluq-Northern Avar,Батлухско-северное,Northern Avar,северноаварский,Khunz,хунзахский,NA,NA,NA,avar1256,#009999,#009999,2024-09-19
368,Ratsitl,Рацитль,42.63788,46.33455,Avar,Avar-Andic,East Caucasian,NA,Avar,Baqluq-Northern Avar,Батлухско-северное,Northern Avar,северноаварский,Unqratl,ункратльский,NA,NA,NA,kara1474,#666699,#9494b8,2024-09-19
369,Tsoloda,Цолода,42.63827,46.36626,Avar,Avar-Andic,East Caucasian,NA,Avar,Baqluq-Northern Avar,Батлухско-северное,Northern Avar,северноаварский,Unqratl,ункратльский,NA,NA,NA,avar1256,#009999,#009999,2024-09-19
370,Ochlo,Очло,42.642518,46.64532,Avar,Avar-Andic,East Caucasian,NA,Avar,Baqluq-Northern Avar,Батлухско-северное,Northern Avar,северноаварский,Khunz,хунзахский,NA,NA,NA,avar1256,#009999,#009999,2024-09-19
371,Kharakhi,Харахи,42.6433,46.5211,Avar,Avar-Andic,East Caucasian,NA,Avar,Baqluq-Northern Avar,Батлухско-северное,Northern Avar,северноаварский,Khunz,хунзахский,NA,NA,NA,avar1256,#009999,#009999,2024-09-19
372,Arykhkent,Арыхкент,42.64472,47.19165,Avar,Avar-Andic,East Caucasian,NA,Avar,Baqluq-Northern Avar,Батлухско-северное,Northern Avar,северноаварский,North-Eastern Avar,северовосточноаварский,гергебильский,NA,NA,avar1256,#009999,#009999,2024-09-19
373,Tlokh,Тлох,42.6492,46.4578,Avar,Avar-Andic,East Caucasian,NA,Avar,Baqluq-Northern Avar,Батлухско-северное,Northern Avar,северноаварский,Unqratl,ункратльский,NA,NA,NA,avar1256,#009999,#009999,2024-09-19
374,Irganay,Ирганай,42.649543,46.912048,Avar,Avar-Andic,East Caucasian,NA,Avar,Baqluq-Northern Avar,Батлухско-северное,Northern Avar,северноаварский,North-Eastern Avar,северовосточноаварский,гергебильский,NA,NA,avar1256,#009999,#009999,2024-09-19
375,Amushchi Maloe,Амущи Малое,42.650445,46.487815,Avar,Avar-Andic,East Caucasian,NA,Avar,Baqluq-Northern Avar,Батлухско-северное,Northern Avar,северноаварский,Khunz,хунзахский,NA,NA,NA,avar1256,#009999,#009999,2024-09-19
376,Arkas,Аркас,42.65194,47.13833,Avar,Avar-Andic,East Caucasian,NA,Avar,Kuyada-Salta,Куяда-салтинское,Kudali-Salta,кудали-салтинский,NA,NA,NA,NA,NA,avar1256,#009999,#009999,2024-09-19
377,Moksokh,Моксох,42.6538,46.80572,Avar,Avar-Andic,East Caucasian,NA,Avar,Baqluq-Northern Avar,Батлухско-северное,Northern Avar,северноаварский,Khunz,хунзахский,NA,NA,NA,avar1256,#009999,#009999,2024-09-19
378,Kolo,Коло,42.65769,46.56607,Avar,Avar-Andic,East Caucasian,NA,Avar,Baqluq-Northern Avar,Батлухско-северное,Northern Avar,северноаварский,Khunz,хунзахский,NA,NA,NA,avar1256,#009999,#009999,2024-09-19
379,Orota,Орота,42.65915,46.53772,Avar,Avar-Andic,East Caucasian,NA,Avar,Baqluq-Northern Avar,Батлухско-северное,Northern Avar,северноаварский,Khunz,хунзахский,NA,NA,NA,avar1256,#009999,#009999,2024-09-19
380,Khindakh,Хиндах,42.6615592,46.5775597,Avar,Avar-Andic,East Caucasian,NA,Avar,Baqluq-Northern Avar,Батлухско-северное,Northern Avar,северноаварский,Khunz,хунзахский,NA,NA,NA,NA,NA,NA,2024-09-19
381,Tsatanikh,Цатаних,42.667793,46.723937,Avar,Avar-Andic,East Caucasian,NA,Avar,Baqluq-Northern Avar,Батлухско-северное,Northern Avar,северноаварский,Khunz,хунзахский,NA,NA,NA,avar1256,#009999,#009999,2024-09-19
382,Ortakolo,Ортаколо,42.67057,46.38882,Avar,Avar-Andic,East Caucasian,NA,Avar,Baqluq-Northern Avar,Батлухско-северное,Northern Avar,северноаварский,Salataw,салатавский,NA,NA,NA,avar1256,#009999,#009999,2024-09-19
383,Verkhniy Aradirikh,Верхний Арадирих,42.67099,46.60372,Avar,Avar-Andic,East Caucasian,NA,Avar,Baqluq-Northern Avar,Батлухско-северное,Northern Avar,северноаварский,Khunz,хунзахский,NA,NA,NA,avar1256,#009999,#009999,2024-09-19
384,Verkhniy Dzhengutay,Верхний Дженгутай,42.67476,47.23415,Avar,Avar-Andic,East Caucasian,NA,Avar,Baqluq-Northern Avar,Батлухско-северное,Northern Avar,северноаварский,North-Eastern Avar,северовосточноаварский,гергебильский,NA,NA,avar1256,#009999,#009999,2024-09-19
385,Kharachi,Харачи,42.67744,46.82263,Avar,Avar-Andic,East Caucasian,NA,Avar,Baqluq-Northern Avar,Батлухско-северное,Northern Avar,северноаварский,Khunz,хунзахский,NA,NA,NA,avar1256,#009999,#009999,2024-09-19
386,Shodroda,Шодрода,42.678426,46.12155,Avar,Avar-Andic,East Caucasian,NA,Avar,Baqluq-Northern Avar,Батлухско-северное,Northern Avar,северноаварский,Unqratl,ункратльский,NA,NA,NA,avar1256,#009999,#009999,2024-09-19
387,Ishtiburi,Иштибури,42.679149,46.702701,Avar,Avar-Andic,East Caucasian,NA,Avar,Baqluq-Northern Avar,Батлухско-северное,Northern Avar,северноаварский,Khunz,хунзахский,NA,NA,NA,avar1256,#009999,#009999,2024-09-19
388,Kolob,Колоб,42.6794172,46.6872697,Avar,Avar-Andic,East Caucasian,NA,Avar,Baqluq-Northern Avar,Батлухско-северное,Northern Avar,северноаварский,Khunz,хунзахский,NA,NA,NA,NA,NA,NA,2024-09-19
389,Sredniy Aradirikh,Средний Арадирих,42.68121,46.58022,Avar,Avar-Andic,East Caucasian,NA,Avar,Baqluq-Northern Avar,Батлухско-северное,Northern Avar,северноаварский,Khunz,хунзахский,NA,NA,NA,avar1256,#009999,#009999,2024-09-19
390,Khintlimita,Хинтлимита,42.681509,46.87221,Avar,Avar-Andic,East Caucasian,NA,Avar,Baqluq-Northern Avar,Батлухско-северное,Northern Avar,северноаварский,Khunz,хунзахский,NA,NA,NA,NA,NA,NA,2024-09-19
391,Nizhniy Aradirikh,Нижний Арадирих,42.68979,46.568219,Avar,Avar-Andic,East Caucasian,NA,Avar,Baqluq-Northern Avar,Батлухско-северное,Northern Avar,северноаварский,Khunz,хунзахский,NA,NA,NA,avar1256,#009999,#009999,2024-09-19
392,Shamilkala,Шамилькала,42.690407,46.874769,Avar,Avar-Andic,East Caucasian,NA,Avar,Baqluq-Northern Avar,Батлухско-северное,Northern Avar,северноаварский,mixed,смеш,NA,NA,NA,avar1256,#009999,#009999,2024-09-19
393,Rakhata,Рахата,42.6911,46.1414,Avar,Avar-Andic,East Caucasian,NA,Avar,Baqluq-Northern Avar,Батлухско-северное,Northern Avar,северноаварский,Unqratl,ункратльский,NA,NA,NA,avar1256,#009999,#009999,2024-09-19
394,Ansalta,Ансалта,42.6939,46.1147,Avar,Avar-Andic,East Caucasian,NA,Avar,Baqluq-Northern Avar,Батлухско-северное,Northern Avar,северноаварский,Unqratl,ункратльский,NA,NA,NA,avar1256,#009999,#009999,2024-09-19
395,Inkvalita,Инквалита,42.69936,46.68833,Avar,Avar-Andic,East Caucasian,NA,Avar,Baqluq-Northern Avar,Батлухско-северное,Northern Avar,северноаварский,Khunz,хунзахский,NA,NA,NA,avar1256,#009999,#009999,2024-09-19
396,Nizhnee Inkho,Нижнее Инхо,42.704518,46.507752,Avar,Avar-Andic,East Caucasian,NA,Avar,Baqluq-Northern Avar,Батлухско-северное,Northern Avar,северноаварский,Salataw,салатавский,NA,NA,NA,avar1256,#009999,#009999,2024-09-19
397,Kilyatl,Килятль,42.704637,46.466046,Avar,Avar-Andic,East Caucasian,NA,Avar,Baqluq-Northern Avar,Батлухско-северное,Northern Avar,северноаварский,Salataw,салатавский,NA,NA,NA,avar1256,#009999,#009999,2024-09-19
398,Verkhnee Inkho,Верхнее Инхо,42.70659,46.50415,Avar,Avar-Andic,East Caucasian,NA,Avar,Baqluq-Northern Avar,Батлухско-северное,Northern Avar,северноаварский,Salataw,салатавский,NA,NA,NA,avar1256,#009999,#009999,2024-09-19
399,Tando,Тандо,42.707696,46.175693,Avar,Avar-Andic,East Caucasian,NA,Avar,Baqluq-Northern Avar,Батлухско-северное,Northern Avar,северноаварский,Unqratl,ункратльский,NA,NA,NA,avar1256,#009999,#009999,2024-09-19
400,Untsukul,Унцукуль,42.7131,46.7875,Avar,Avar-Andic,East Caucasian,NA,Avar,Baqluq-Northern Avar,Батлухско-северное,Northern Avar,северноаварский,Khunz,хунзахский,NA,NA,NA,avar1256,#009999,#009999,2024-09-19
401,Tasuta,Тасута,42.71731,46.22568,Avar,Avar-Andic,East Caucasian,NA,Avar,Baqluq-Northern Avar,Батлухско-северное,Northern Avar,северноаварский,Unqratl,ункратльский,NA,NA,NA,avar1256,#009999,#009999,2024-09-19
402,Igali,Игали,42.7181,46.5811,Avar,Avar-Andic,East Caucasian,NA,Avar,Baqluq-Northern Avar,Батлухско-северное,Northern Avar,северноаварский,Khunz,хунзахский,NA,NA,NA,avar1256,#009999,#009999,2024-09-19
403,Tsanatl,Цанатль,42.72244,46.62252,Avar,Avar-Andic,East Caucasian,NA,Avar,Baqluq-Northern Avar,Батлухско-северное,Northern Avar,северноаварский,Khunz,хунзахский,NA,NA,NA,avar1256,#009999,#009999,2024-09-19
404,Chitl,Читль,42.722594,46.504009,Avar,Avar-Andic,East Caucasian,NA,Avar,Baqluq-Northern Avar,Батлухско-северное,Northern Avar,северноаварский,Salataw,салатавский,NA,NA,NA,avar1256,#009999,#009999,2024-09-19
405,Betli,Бетли,42.72372,46.73388,Avar,Avar-Andic,East Caucasian,NA,Avar,Baqluq-Northern Avar,Батлухско-северное,Northern Avar,северноаварский,Khunz,хунзахский,NA,NA,NA,avar1256,#009999,#009999,2024-09-19
406,Gergentala,Гергентала,42.73225,47.05913,Avar,Avar-Andic,East Caucasian,NA,Avar,Kuyada-Salta,Куяда-салтинское,Kudali-Salta,кудали-салтинский,NA,NA,NA,NA,NA,avar1256,#009999,#009999,2024-09-19
407,Ichichali,Ичичали,42.732617,46.405263,Avar,Avar-Andic,East Caucasian,NA,Avar,Baqluq-Northern Avar,Батлухско-северное,Northern Avar,северноаварский,Salataw,салатавский,NA,NA,NA,avar1256,#009999,#009999,2024-09-19
408,Kakhabroso,Кахабросо,42.73896,46.704697,Avar,Avar-Andic,East Caucasian,NA,Avar,Baqluq-Northern Avar,Батлухско-северное,Northern Avar,северноаварский,Khunz,хунзахский,NA,NA,NA,avar1256,#009999,#009999,2024-09-19
409,Kizhani,Кижани,42.74031,46.364775,Avar,Avar-Andic,East Caucasian,NA,Avar,Baqluq-Northern Avar,Батлухско-северное,Northern Avar,северноаварский,Salataw,салатавский,NA,NA,NA,avar1256,#009999,#009999,2024-09-19
410,Tsundi,Цунди,42.740996,46.436577,Avar,Avar-Andic,East Caucasian,NA,Avar,Baqluq-Northern Avar,Батлухско-северное,Northern Avar,северноаварский,Salataw,салатавский,NA,NA,NA,avar1256,#009999,#009999,2024-09-19
411,Kunzakh,Кунзах,42.74884,46.66488,Avar,Avar-Andic,East Caucasian,NA,Avar,Baqluq-Northern Avar,Батлухско-северное,Northern Avar,северноаварский,Khunz,хунзахский,NA,NA,NA,avar1256,#009999,#009999,2024-09-19
412,Shabdukh,Шабдух,42.75612,46.42139,Avar,Avar-Andic,East Caucasian,NA,Avar,Baqluq-Northern Avar,Батлухско-северное,Northern Avar,северноаварский,Salataw,салатавский,NA,NA,NA,avar1256,#009999,#009999,2024-09-19
413,Gimry,Гимры,42.757219,46.838739,Avar,Avar-Andic,East Caucasian,NA,Avar,Baqluq-Northern Avar,Батлухско-северное,Northern Avar,северноаварский,Khunz,хунзахский,NA,NA,NA,avar1256,#009999,#009999,2024-09-19
414,Manasaul,Манасаул,42.7575,47.0397,Avar,Avar-Andic,East Caucasian,NA,Avar,Kuyada-Salta,Куяда-салтинское,Kudali-Salta,кудали-салтинский,NA,NA,NA,NA,NA,avar1256,#009999,#009999,2024-09-19
415,Tantari,Тантари,42.76371,46.64888,Avar,Avar-Andic,East Caucasian,NA,Avar,Baqluq-Northern Avar,Батлухско-северное,Northern Avar,северноаварский,Khunz,хунзахский,NA,NA,NA,avar1256,#009999,#009999,2024-09-19
416,Ashilta,Ашильта,42.772446,46.728853,Avar,Avar-Andic,East Caucasian,NA,Avar,Baqluq-Northern Avar,Батлухско-северное,Northern Avar,северноаварский,Khunz,хунзахский,NA,NA,NA,avar1256,#009999,#009999,2024-09-19
417,Ingishi,Ингиши,42.77477,46.54264,Avar,Avar-Andic,East Caucasian,NA,Avar,Baqluq-Northern Avar,Батлухско-северное,Northern Avar,северноаварский,Salataw,салатавский,NA,NA,NA,avar1256,#009999,#009999,2024-09-19
418,Novoe Argvani,Новое Аргвани,42.78174,46.60445,Avar,Avar-Andic,East Caucasian,NA,Avar,Baqluq-Northern Avar,Батлухско-северное,Northern Avar,северноаварский,Salataw,салатавский,NA,NA,NA,avar1256,#009999,#009999,2024-09-19
419,Chirkata,Чирката,42.783992,46.716609,Avar,Avar-Andic,East Caucasian,NA,Avar,Baqluq-Northern Avar,Батлухско-северное,Northern Avar,северноаварский,Salataw,салатавский,NA,NA,NA,avar1256,#009999,#009999,2024-09-19
420,Tlyarata,Тлярата,42.79528,46.5325,Avar,Avar-Andic,East Caucasian,NA,Avar,Baqluq-Northern Avar,Батлухско-северное,Northern Avar,северноаварский,Salataw,салатавский,NA,NA,NA,NA,NA,NA,2024-09-19
421,Mekhelta,Мехельта,42.798277,46.497361,Avar,Avar-Andic,East Caucasian,NA,Avar,Baqluq-Northern Avar,Батлухско-северное,Northern Avar,северноаварский,Salataw,салатавский,NA,NA,NA,avar1256,#009999,#009999,2024-09-19
422,Gadari,Гадари,42.807303,46.621237,Avar,Avar-Andic,East Caucasian,NA,Avar,Baqluq-Northern Avar,Батлухско-северное,Northern Avar,северноаварский,Salataw,салатавский,NA,NA,NA,avar1256,#009999,#009999,2024-09-19
423,Tsiyab-Tsilitli,Цияб-Цилитли,42.8105097,46.4181434,Avar,Avar-Andic,East Caucasian,NA,Avar,Baqluq-Northern Avar,Батлухско-северное,Northern Avar,северноаварский,Salataw,салатавский,NA,NA,NA,NA,NA,NA,2024-09-19
424,Tsilitl,Цилитль,42.8125,46.4156,Avar,Avar-Andic,East Caucasian,NA,Avar,Baqluq-Northern Avar,Батлухско-северное,Northern Avar,северноаварский,Salataw,салатавский,NA,NA,NA,avar1256,#009999,#009999,2024-09-19
425,Argvani,Аргвани,42.8128,46.5792,Avar,Avar-Andic,East Caucasian,NA,Avar,Baqluq-Northern Avar,Батлухско-северное,Northern Avar,северноаварский,Salataw,салатавский,NA,NA,NA,avar1256,#009999,#009999,2024-09-19
426,Nanibika,Нанибика,42.8148532,46.5940654,Avar,Avar-Andic,East Caucasian,NA,Avar,Baqluq-Northern Avar,Батлухско-северное,Northern Avar,северноаварский,Salataw,салатавский,NA,NA,NA,NA,NA,NA,2024-09-19
427,Buynaksk,Буйнакск,42.818275,47.123136,Avar,Avar-Andic,East Caucasian,NA,Avar,Baqluq-Northern Avar,Батлухско-северное,Northern Avar,северноаварский,mixed,смеш,NA,NA,NA,NA,NA,NA,2024-09-19
428,Verkhniy Karanay,Верхний Каранай,42.8281,46.9072,Avar,Avar-Andic,East Caucasian,NA,Avar,Baqluq-Northern Avar,Батлухско-северное,Northern Avar,северноаварский,North-Eastern Avar,северовосточноаварский,NA,NA,NA,avar1256,#009999,#009999,2024-09-19
429,Danukh,Данух,42.84282,46.6275,Avar,Avar-Andic,East Caucasian,NA,Avar,Baqluq-Northern Avar,Батлухско-северное,Northern Avar,северноаварский,Salataw,салатавский,NA,NA,NA,avar1256,#009999,#009999,2024-09-19
430,Nizhniy Karanay,Нижний Каранай,42.84729,46.940488,Avar,Avar-Andic,East Caucasian,NA,Avar,Baqluq-Northern Avar,Батлухско-северное,Northern Avar,северноаварский,North-Eastern Avar,северовосточноаварский,NA,NA,NA,avar1256,#009999,#009999,2024-09-19
431,Akhtachikan,Ахтачикан,42.8619399,46.6693801,Avar,Avar-Andic,East Caucasian,NA,Avar,Baqluq-Northern Avar,Батлухско-северное,Northern Avar,северноаварский,Salataw,салатавский,NA,NA,NA,NA,NA,NA,2024-09-19
432,Artlukh,Артлух,42.8631,46.6683,Avar,Avar-Andic,East Caucasian,NA,Avar,Baqluq-Northern Avar,Батлухско-северное,Northern Avar,северноаварский,Salataw,салатавский,NA,NA,NA,avar1256,#009999,#009999,2024-09-19
433,Imanaliroso,Иманалиросо,42.91429,46.76761,Avar,Avar-Andic,East Caucasian,NA,Avar,Baqluq-Northern Avar,Батлухско-северное,Northern Avar,северноаварский,Salataw,салатавский,NA,NA,NA,avar1256,#009999,#009999,2024-09-19
434,Akhsu,Ахсу,42.92342,46.694116,Avar,Avar-Andic,East Caucasian,NA,Avar,Baqluq-Northern Avar,Батлухско-северное,Northern Avar,северноаварский,Salataw,салатавский,NA,NA,NA,avar1256,#009999,#009999,2024-09-19
435,Chirkey,Чиркей,42.9633,46.9767,Avar,Avar-Andic,East Caucasian,NA,Avar,Baqluq-Northern Avar,Батлухско-северное,Northern Avar,северноаварский,Salataw,салатавский,NA,NA,NA,avar1256,#009999,#009999,2024-09-19
436,Almak,Алмак,42.985693,46.580315,Avar,Avar-Andic,East Caucasian,NA,Avar,Baqluq-Northern Avar,Батлухско-северное,Northern Avar,северноаварский,Salataw,салатавский,NA,NA,NA,avar1256,#009999,#009999,2024-09-19
437,Burtunay,Буртунай,42.992004,46.630332,Avar,Avar-Andic,East Caucasian,NA,Avar,Baqluq-Northern Avar,Батлухско-северное,Northern Avar,северноаварский,Salataw,салатавский,NA,NA,NA,avar1256,#009999,#009999,2024-09-19
438,Gertma,Гертма,42.996711,46.74415,Avar,Avar-Andic,East Caucasian,NA,Avar,Baqluq-Northern Avar,Батлухско-северное,Northern Avar,северноаварский,Salataw,салатавский,NA,NA,NA,avar1256,#009999,#009999,2024-09-19
439,Dubki,Дубки,43.02116,46.83746,Avar,Avar-Andic,East Caucasian,NA,Avar,Baqluq-Northern Avar,Батлухско-северное,Northern Avar,северноаварский,Salataw,салатавский,NA,NA,NA,avar1256,#009999,#009999,2024-09-19
440,Akaytala,Акайтала,43.03176,46.92583,Avar,Avar-Andic,East Caucasian,NA,Avar,Baqluq-Northern Avar,Батлухско-северное,Northern Avar,северноаварский,Salataw,салатавский,NA,NA,NA,avar1256,#009999,#009999,2024-09-19
441,Guni,Гуни,43.0340276,46.6954166,Avar,Avar-Andic,East Caucasian,NA,Avar,Baqluq-Northern Avar,Батлухско-северное,Northern Avar,северноаварский,Salataw,салатавский,NA,NA,NA,NA,NA,NA,2024-09-19
442,Khubar,Хубар,43.0514,46.7547,Avar,Avar-Andic,East Caucasian,NA,Avar,Baqluq-Northern Avar,Батлухско-северное,Northern Avar,северноаварский,Salataw,салатавский,NA,NA,NA,avar1256,#009999,#009999,2024-09-19
443,Dylym,Дылым,43.0703,46.6386,Avar,Avar-Andic,East Caucasian,NA,Avar,Baqluq-Northern Avar,Батлухско-северное,Northern Avar,северноаварский,Salataw,салатавский,NA,NA,NA,avar1256,#009999,#009999,2024-09-19
444,Kalininaul,Калининаул,43.0712553,46.5659164,Avar,Avar-Andic,East Caucasian,NA,Avar,Baqluq-Northern Avar,Батлухско-северное,Northern Avar,северноаварский,Salataw,салатавский,NA,NA,NA,NA,NA,NA,2024-09-19
445,Gostala,Гостала,43.07334,46.6925,Avar,Avar-Andic,East Caucasian,NA,Avar,Baqluq-Northern Avar,Батлухско-северное,Northern Avar,северноаварский,Salataw,салатавский,NA,NA,NA,avar1256,#009999,#009999,2024-09-19
446,Miatli,Миатли,43.08173,46.8286,Avar,Avar-Andic,East Caucasian,NA,Avar,Baqluq-Northern Avar,Батлухско-северное,Northern Avar,северноаварский,Salataw,салатавский,NA,NA,NA,avar1256,#009999,#009999,2024-09-19
447,Leninaul,Ленинаул,43.0920033,46.5722335,Avar,Avar-Andic,East Caucasian,NA,Avar,Baqluq-Northern Avar,Батлухско-северное,Northern Avar,северноаварский,Salataw,салатавский,NA,NA,NA,NA,NA,NA,2024-09-19
448,Inchkha,Инчха,43.0964,46.7675,Avar,Avar-Andic,East Caucasian,NA,Avar,Baqluq-Northern Avar,Батлухско-северное,Northern Avar,северноаварский,Salataw,салатавский,NA,NA,NA,avar1256,#009999,#009999,2024-09-19
449,Novyy Chirkey,Новый Чиркей,43.1625076,47.0549437,Avar,Avar-Andic,East Caucasian,NA,Avar,Baqluq-Northern Avar,Батлухско-северное,Northern Avar,северноаварский,Salataw,салатавский,NA,NA,NA,NA,NA,NA,2024-09-19
450,Bavtugay,Бавтугай,43.164415,46.834429,Avar,Avar-Andic,East Caucasian,NA,Avar,Baqluq-Northern Avar,Батлухско-северное,Northern Avar,северноаварский,Salataw,салатавский,NA,NA,NA,NA,NA,NA,2024-09-19
451,Kulzeb,Кульзеб,43.1686,47.0108,Avar,Avar-Andic,East Caucasian,NA,Avar,Qaraq-Buxti-Unti,Карахско-бухтинско-унтибское,Qaraq,карахский,Mukratl,мукратльский,NA,NA,NA,NA,NA,NA,2024-09-19
452,Staryy Bavtugay,Старый Бавтугай,43.174998,46.840197,Avar,Avar-Andic,East Caucasian,NA,Avar,Baqluq-Northern Avar,Батлухско-северное,Northern Avar,северноаварский,Salataw,салатавский,NA,NA,NA,NA,NA,NA,2024-09-19
453,Khachta,Хачта,43.1840072,47.0741076,Avar,Avar-Andic,East Caucasian,NA,Avar,Baqluq-Northern Avar,Батлухско-северное,Northern Avar,северноаварский,Khunz,хунзахский,NA,NA,NA,NA,NA,NA,2024-09-19
454,Novoe Gadari,Новое Гадари,43.1934143,46.7684959,Avar,Avar-Andic,East Caucasian,NA,Avar,Baqluq-Northern Avar,Батлухско-северное,Northern Avar,северноаварский,Salataw,салатавский,NA,NA,NA,NA,NA,NA,2024-09-19
455,Arkida,Аркида,43.2063305,47.0597971,Avar,Avar-Andic,East Caucasian,NA,Avar,Baqluq-Northern Avar,Батлухско-северное,Northern Avar,северноаварский,Khunz,хунзахский,NA,NA,NA,NA,NA,NA,2024-09-19
456,Zubutli-Miatli,Зубутли-Миатли,43.2068567,46.8222918,Avar,Avar-Andic,East Caucasian,NA,Avar,Baqluq-Northern Avar,Батлухско-северное,Northern Avar,северноаварский,Salataw,салатавский,NA,NA,NA,NA,NA,NA,2024-09-19
457,Tsiyab-Tsoloda,Цияб-Цолода,43.2412342,46.4254324,Avar,Avar-Andic,East Caucasian,NA,Avar,Baqluq-Northern Avar,Батлухско-северное,Northern Avar,северноаварский,Unqratl,ункратльский,NA,NA,NA,NA,NA,NA,2024-09-19
458,Novomekhelta,Новомехельта,43.2556023,46.5459475,Avar,Avar-Andic,East Caucasian,NA,Avar,Baqluq-Northern Avar,Батлухско-северное,Northern Avar,северноаварский,Salataw,салатавский,NA,NA,NA,NA,NA,NA,2024-09-19
459,Krasnoe,Красное,43.263056,47.097222,Avar,Avar-Andic,East Caucasian,NA,Avar,Baqluq-Northern Avar,Батлухско-северное,Northern Avar,северноаварский,Khunz,хунзахский,NA,NA,NA,NA,NA,NA,2024-09-19
460,Akhtini,Ахтини,43.2818572,47.0269665,Avar,Avar-Andic,East Caucasian,NA,Avar,Baqluq-Northern Avar,Батлухско-северное,Northern Avar,северноаварский,Khunz,хунзахский,NA,NA,NA,NA,NA,NA,2024-09-19
461,Arada,Арада,43.309578,47.151493,Avar,Avar-Andic,East Caucasian,NA,Avar,Baqluq-Northern Avar,Батлухско-северное,Northern Avar,северноаварский,Khunz,хунзахский,NA,NA,NA,NA,NA,NA,2024-09-19
462,Akaro,Акаро,43.352007,46.977198,Avar,Avar-Andic,East Caucasian,NA,Avar,Baqluq-Northern Avar,Батлухско-северное,Northern Avar,северноаварский,Khunz,хунзахский,NA,NA,NA,NA,NA,NA,2024-09-19
463,Tsiyab Ichichali,Цияб Ичичали,43.3843753,46.6192542,Avar,Avar-Andic,East Caucasian,NA,Avar,Baqluq-Northern Avar,Батлухско-северное,Northern Avar,северноаварский,Salataw,салатавский,NA,NA,NA,NA,NA,NA,2024-09-19
464,Novosositli,Новососитли,43.385008,46.5856046,Avar,Avar-Andic,East Caucasian,NA,Avar,Baqluq-Northern Avar,Батлухско-северное,Northern Avar,северноаварский,Unqratl,ункратльский,NA,NA,NA,NA,NA,NA,2024-09-19
465,Arkhida,Архида,43.4301147,46.7866756,Avar,Avar-Andic,East Caucasian,NA,Avar,Baqluq-Northern Avar,Батлухско-северное,Northern Avar,северноаварский,Khunz,хунзахский,NA,NA,NA,NA,NA,NA,2024-09-19
466,Moksob,Моксоб,43.4344793,46.4862649,Avar,Avar-Andic,East Caucasian,NA,Avar,Qaraq-Buxti-Unti,Карахско-бухтинско-унтибское,Qaraq,карахский,Upper Qaraq,в.-карах,NA,NA,NA,NA,NA,NA,2024-09-19
467,Sentukh,Сентух,43.4369882,46.8909003,Avar,Avar-Andic,East Caucasian,NA,Avar,Baqluq-Northern Avar,Батлухско-северное,Northern Avar,северноаварский,Khunz,хунзахский,NA,NA,NA,NA,NA,NA,2024-09-19
468,Nusi,Нуси,43.454843,46.9703632,Avar,Avar-Andic,East Caucasian,NA,Avar,Baqluq-Northern Avar,Батлухско-северное,Northern Avar,северноаварский,Khunz,хунзахский,NA,NA,NA,NA,NA,NA,2024-09-19
469,Narysh,Нарыш,43.5267649,46.6977315,Avar,Avar-Andic,East Caucasian,NA,Avar,Baqluq-Northern Avar,Батлухско-северное,Northern Avar,северноаварский,Salataw,салатавский,NA,NA,NA,NA,NA,NA,2024-09-19
470,Ibragimotar,Ибрагимотар,43.564872,46.470956,Avar,Avar-Andic,East Caucasian,NA,Avar,Antlratl,Анкратльское,Southern Antlratl,южноанкратльский,Buhun,бухнадинский,NA,NA,NA,NA,NA,NA,2024-09-19
471,Kalininaul,Калининаул,43.576933,46.483161,Avar,Avar-Andic,East Caucasian,NA,Avar,Antlratl,Анкратльское,Southern Antlratl,южноанкратльский,Buhun,бухнадинский,NA,NA,NA,NA,NA,NA,2024-09-19
472,Tsadakh,Цадах,43.5818785,47.0409244,Avar,Avar-Andic,East Caucasian,NA,Avar,Qaraq-Buxti-Unti,Карахско-бухтинско-унтибское,Qaraq,карахский,mixed,смешанные,NA,NA,NA,NA,NA,NA,2024-09-19
473,Ankhvala,Анхвала,43.6555637,46.903205,Avar,Avar-Andic,East Caucasian,NA,Avar,Baqluq-Northern Avar,Батлухско-северное,Northern Avar,северноаварский,Unqratl,ункратльский,NA,NA,NA,NA,NA,NA,2024-09-19
474,Chubutla,Чубутла,44.1126327,46.3768513,Avar,Avar-Andic,East Caucasian,NA,Avar,Baqluq-Northern Avar,Батлухско-северное,Northern Avar,северноаварский,Unqratl,ункратльский,NA,NA,NA,NA,NA,NA,2024-09-19
475,Novyy Bakhtemir,Новый Бахтемир,44.131824,47.265054,Avar,Avar-Andic,East Caucasian,NA,Avar,Baqluq-Northern Avar,Батлухско-северное,Northern Avar,северноаварский,Salataw,салатавский,NA,NA,NA,NA,NA,NA,2024-09-19
476,Tlenkhori,Тленхори,42.4681009,46.0549675,Bagvalal,Andic,East Caucasian,NA,Bagvalal,Western Bagvalal,Западнобагвалинский,NA,NA,NA,NA,NA,NA,Tlenkhori,bagv1239,#000066,#9900ff,2024-09-19
477,Khushtada,Хуштада,42.517389,46.166126,Bagvalal,Andic,East Caucasian,NA,Bagvalal,Western Bagvalal,Западнобагвалинский,Tlondoda-Khushtada,Тлондинско-хуштадинский,NA,NA,NA,NA,Khushtada,bagv1239,#000066,#9900ff,2024-09-19
478,Tlondoda,Тлондода,42.5247,46.1989,Bagvalal,Andic,East Caucasian,NA,Bagvalal,Western Bagvalal,Западнобагвалинский,Tlondoda-Khushtada,Тлондинско-хуштадинский,NA,NA,NA,NA,Tlondoda,bagv1239,#000066,#9900ff,2024-09-19
479,Tlibisho,Тлибишо,42.56054,46.30101,Bagvalal,Andic,East Caucasian,NA,Bagvalal,Eastern Bagvalal,Восточнобагвалинский,Tlisi-Tlibisho,Тлисси-тлибишинский,NA,NA,NA,NA,Tlibisho,bagv1239,#000066,#9900ff,2024-09-19
480,Kvanada,Кванада,42.561478,46.17397,Bagvalal,Andic,East Caucasian,NA,Bagvalal,Western Bagvalal,Западнобагвалинский,Kvanada-Gimerso,Квандинско-гимерсинский,NA,NA,NA,NA,Kvanada,bagv1239,#000066,#9900ff,2024-09-19
481,Gimerso,Гимерсо,42.561489,46.227545,Bagvalal,Andic,East Caucasian,NA,Bagvalal,Western Bagvalal,Западнобагвалинский,Kvanada-Gimerso,Квандинско-гимерсинский,NA,NA,NA,NA,Gimerso,bagv1239,#000066,#9900ff,2024-09-19
482,Tlisi,Тлиси,42.56209,46.27428,Bagvalal,Andic,East Caucasian,NA,Bagvalal,Eastern Bagvalal,Восточнобагвалинский,Tlisi-Tlibisho,Тлисси-тлибишинский,NA,NA,NA,NA,Tlisi,bagv1239,#000066,#9900ff,2024-09-19
483,Chantlisqure,Чантлискуре,41.9095028,45.9071768,Bezhta,Tsezic,East Caucasian,NA,Bezhta,NA,NA,NA,NA,NA,NA,NA,NA,Chantlisqure,bezh1248,#ff5050,#ff5050,2024-09-19
484,Tlyadal,Тлядал,42.125339,46.237247000000004,Bezhta,Tsezic,East Caucasian,NA,Bezhta,Tlyadal,Тлядальский,NA,NA,NA,NA,NA,NA,Tlyadal,bezh1248,#ff5050,#ff5050,2024-09-19
485,Khasharkhota,Хашархота,42.12912,46.142158,Bezhta,Tsezic,East Caucasian,NA,Bezhta,Khasharkhota,Тлядальский,NA,NA,NA,NA,NA,NA,Khasharkhota,bezh1248,#ff5050,#ff5050,2024-09-19
486,Bezhta,Бежта,42.1339,46.1247,Bezhta,Tsezic,East Caucasian,NA,Bezhta,Bezhta,Бежтинский,NA,NA,NA,NA,NA,NA,Bezhta,bezh1248,#ff5050,#ff5050,2024-09-19
487,Miarso,Миарсо,42.654059,46.175643,Botlikh,Andic,East Caucasian,NA,Botlikh,Miarso,Миарсинский,NA,NA,NA,NA,NA,NA,Miarso,botl1242,#336699,#9900ff,2024-09-19
488,Botlikh,Ботлих,42.667813,46.221451,Botlikh,Andic,East Caucasian,NA,Botlikh,Botlikh,Ботлихский,NA,NA,NA,NA,NA,NA,Botlikh,botl1242,#336699,#9900ff,2024-09-19
489,Ashino,Ашино,42.683462,46.156727,Botlikh,Andic,East Caucasian,NA,Botlikh,Botlikh,Ботлихский,NA,NA,NA,NA,NA,NA,Ashino,botl1242,#336699,#9900ff,2024-09-19
490,Ankho,Анхо,42.723184,46.239448,Botlikh,Andic,East Caucasian,NA,Botlikh,Botlikh,Ботлихский,NA,NA,NA,NA,NA,NA,Ankho,botl1242,#336699,#9900ff,2024-09-19
491,Karakyz,Карагыз,41.133333,48.483333,Budukh,Lezgic,East Caucasian,NA,Budukh,NA,NA,NA,NA,NA,NA,NA,NA,Karakyz,budu1248,#006600,#00cc66,2024-09-19
492,Dalıqaya,Дели-Кая,41.166667,48.433333,Budukh,Lezgic,East Caucasian,NA,Budukh,NA,NA,NA,NA,NA,NA,NA,NA,Dalıqaya,budu1248,#006600,#00cc66,2024-09-19
493,Buduq,Будуг,41.18611,48.36861,Budukh,Lezgic,East Caucasian,NA,Budukh,NA,NA,NA,NA,NA,NA,NA,NA,Budukh,budu1248,#006600,#00cc66,2024-09-19
494,Yergüc,Ергюдж,41.209167,48.283056,Budukh,Lezgic,East Caucasian,NA,Budukh,NA,NA,NA,NA,NA,NA,NA,NA,Yergüc,budu1248,#006600,#00cc66,2024-09-19
495,Yalavanc,Ялавандж,41.228333,49.090278,Budukh,Lezgic,East Caucasian,NA,Budukh,NA,NA,NA,NA,NA,NA,NA,NA,Yalavanc,budu1248,#006600,#00cc66,2024-09-19
496,Sukhtakala,Сухтакала,41.266667,48.4,Budukh,Lezgic,East Caucasian,NA,Budukh,NA,NA,NA,NA,NA,NA,NA,NA,Sukhtakala,budu1248,#006600,#00cc66,2024-09-19
497,Bağbanlı,Багбанлы,41.3803182,48.6369682,Budukh,Lezgic,East Caucasian,NA,Budukh,NA,NA,NA,NA,NA,NA,NA,NA,Bağbanlı,budu1248,#006600,#00cc66,2024-09-19
498,Egdada,Эгдада,42.4681009,46.0549675,Chamalal,Andic,East Caucasian,NA,Chamalal,Lower Gakvari,Нижнегакваринский,NA,NA,NA,NA,NA,NA,Egdada,cham1309,#000099,#9900ff,2024-09-19
499,Tsumada-Urukh,Цумада-Урух,42.474208,46.063467,Chamalal,Andic,East Caucasian,NA,Chamalal,Tsumadi,Цумадинский,NA,NA,NA,NA,NA,NA,Tsumada-Urukh,cham1309,#000099,#9900ff,2024-09-19
500,Tsumada,Цумада,42.48187,46.05247,Chamalal,Andic,East Caucasian,NA,Chamalal,Tsumadi,Гакваринский,NA,NA,NA,NA,NA,NA,Tsumada,cham1309,#000099,#9900ff,2024-09-19
501,Richaganikh,Ричаганих,42.49724,46.05853,Chamalal,Andic,East Caucasian,NA,Chamalal,Tsumadi,Гакваринский,NA,NA,NA,NA,NA,NA,Richaganikh,cham1309,#000099,#9900ff,2024-09-19
502,Tsidatl',Цидатль,42.51855,46.05795,Chamalal,Andic,East Caucasian,NA,Chamalal,Lower Gakvari,Нижнегакваринский,NA,NA,NA,NA,NA,NA,Tsidatl',cham1309,#000099,#9900ff,2024-09-19
503,Tsuydi,Цуйди,42.52334,46.07182,Chamalal,Andic,East Caucasian,NA,Chamalal,Lower Gakvari,Нижнегакваринский,NA,NA,NA,NA,NA,NA,Tsuydi,cham1309,#000099,#9900ff,2024-09-19
504,Kochali,Кочали,42.527888,46.116112,Chamalal,Andic,East Caucasian,NA,Chamalal,Gadyri,Гадыринский,NA,NA,NA,NA,NA,NA,Kochali,cham1309,#000099,#9900ff,2024-09-19
505,Gigikh,Гигих,42.532529,46.101767,Chamalal,Andic,East Caucasian,NA,Chamalal,Gadyri,Гадыринский,NA,NA,NA,NA,NA,NA,Gigikh,cham1309,#000099,#9900ff,2024-09-19
506,Nizhnee Gakvari,Нижнее Гаквари,42.53602,46.05171,Chamalal,Andic,East Caucasian,NA,Chamalal,Lower Gakvari,Нижнегакваринский,NA,NA,NA,NA,NA,NA,Lower Gakvari,cham1309,#000099,#9900ff,2024-09-19
507,Agvali,Агвали,42.541192,46.121798,Chamalal,Andic,East Caucasian,NA,Chamalal,NA,NA,NA,NA,NA,NA,NA,NA,Agvali,cham1309,#000099,#9900ff,2024-09-19
508,Verkhnee Gakvari,Верхнее Гаквари,42.547874,46.032686,Chamalal,Andic,East Caucasian,NA,Chamalal,Upper Gakvari,Верхнегакваринский,NA,NA,NA,NA,NA,NA,Upper Gakvari,cham1309,#000099,#9900ff,2024-09-19
509,Gachitli,Гачитли,42.551361,46.088803,Chamalal,Andic,East Caucasian,NA,Chamalal,Gadyri,Гадыринский,NA,NA,NA,NA,NA,NA,Gachitli,cham1309,#000099,#9900ff,2024-09-19
510,Gadiri,Гадири,42.566265,46.065746,Chamalal,Andic,East Caucasian,NA,Chamalal,Gadyri,Гадыринский,NA,NA,NA,NA,NA,NA,Gadyri,cham1309,#000099,#9900ff,2024-09-19
511,Batlakhatli,Батлахатли,42.580364,46.058877,Chamalal,Andic,East Caucasian,NA,NA,NA,NA,NA,NA,NA,NA,NA,NA,Batlakhatli,cham1309,#000099,#9900ff,2024-09-19
512,Gigatl',Гигатль,42.58136,46.0964,Chamalal,Andic,East Caucasian,NA,Gigatli,NA,NA,NA,NA,NA,NA,NA,NA,Gigatli,cham1309,#000099,#9900ff,2024-09-19
513,Gigatli-Urukh,Гигатли-Урух,42.590934,46.142589,Chamalal,Andic,East Caucasian,NA,Gigatli,NA,NA,NA,NA,NA,NA,NA,NA,Gigatli-Urukh,cham1309,#000099,#9900ff,2024-09-19
